[
  {
    "city_ascii": "Malisheve",
    "lat": "42.4822",
    "lng": "20.7458",
    "country": "Kosovo"
  },
  {
    "city_ascii": "Prizren",
    "lat": "42.2139",
    "lng": "20.7397",
    "country": "Kosovo"
  },
  {
    "city_ascii": "Zubin Potok",
    "lat": "42.9144",
    "lng": "20.6897",
    "country": "Kosovo"
  },
  {
    "city_ascii": "Kamenice",
    "lat": "42.5781",
    "lng": "21.5803",
    "country": "Kosovo"
  },
  {
    "city_ascii": "Viti",
    "lat": "42.3214",
    "lng": "21.3583",
    "country": "Kosovo"
  },
  {
    "city_ascii": "Shterpce",
    "lat": "42.2394",
    "lng": "21.0272",
    "country": "Kosovo"
  },
  {
    "city_ascii": "Shtime",
    "lat": "42.4331",
    "lng": "21.0397",
    "country": "Kosovo"
  },
  {
    "city_ascii": "Vushtrri",
    "lat": "42.8231",
    "lng": "20.9675",
    "country": "Kosovo"
  },
  {
    "city_ascii": "Dragash",
    "lat": "42.0265",
    "lng": "20.6533",
    "country": "Kosovo"
  },
  {
    "city_ascii": "Podujeve",
    "lat": "42.9111",
    "lng": "21.1899",
    "country": "Kosovo"
  },
  {
    "city_ascii": "Fushe Kosove",
    "lat": "42.6639",
    "lng": "21.0961",
    "country": "Kosovo"
  },
  {
    "city_ascii": "Kacanik",
    "lat": "42.2319",
    "lng": "21.2594",
    "country": "Kosovo"
  },
  {
    "city_ascii": "Kline",
    "lat": "42.6217",
    "lng": "20.5778",
    "country": "Kosovo"
  },
  {
    "city_ascii": "Leposaviq",
    "lat": "43.1039",
    "lng": "20.8028",
    "country": "Kosovo"
  },
  {
    "city_ascii": "Peje",
    "lat": "42.66",
    "lng": "20.2922",
    "country": "Kosovo"
  },
  {
    "city_ascii": "Rahovec",
    "lat": "42.3994",
    "lng": "20.6547",
    "country": "Kosovo"
  },
  {
    "city_ascii": "Gjilan",
    "lat": "42.4689",
    "lng": "21.4633",
    "country": "Kosovo"
  },
  {
    "city_ascii": "Lipjan",
    "lat": "42.5217",
    "lng": "21.1258",
    "country": "Kosovo"
  },
  {
    "city_ascii": "Obiliq",
    "lat": "42.6869",
    "lng": "21.0703",
    "country": "Kosovo"
  },
  {
    "city_ascii": "Gjakove",
    "lat": "42.3803",
    "lng": "20.4308",
    "country": "Kosovo"
  },
  {
    "city_ascii": "Pristina",
    "lat": "42.6666",
    "lng": "21.1724",
    "country": "Kosovo"
  },
  {
    "city_ascii": "Decan",
    "lat": "42.5378",
    "lng": "20.2911",
    "country": "Kosovo"
  },
  {
    "city_ascii": "Istog",
    "lat": "42.7808",
    "lng": "20.4875",
    "country": "Kosovo"
  },
  {
    "city_ascii": "Hani i Elezit",
    "lat": "42.15",
    "lng": "21.2967",
    "country": "Kosovo"
  },
  {
    "city_ascii": "Junik",
    "lat": "42.4758",
    "lng": "20.2772",
    "country": "Kosovo"
  },
  {
    "city_ascii": "Kllokot",
    "lat": "42.3714",
    "lng": "21.3744",
    "country": "Kosovo"
  },
  {
    "city_ascii": "Mamushe",
    "lat": "42.3308",
    "lng": "20.7269",
    "country": "Kosovo"
  },
  {
    "city_ascii": "Partesh",
    "lat": "42.4019",
    "lng": "21.4336",
    "country": "Kosovo"
  },
  {
    "city_ascii": "Ranillug",
    "lat": "42.4922",
    "lng": "21.5989",
    "country": "Kosovo"
  },
  {
    "city_ascii": "Ferizaj",
    "lat": "42.3706",
    "lng": "21.1553",
    "country": "Kosovo"
  },
  {
    "city_ascii": "Zvecan",
    "lat": "42.9075",
    "lng": "20.8403",
    "country": "Kosovo"
  },
  {
    "city_ascii": "Suhareke",
    "lat": "42.3586",
    "lng": "20.825",
    "country": "Kosovo"
  },
  {
    "city_ascii": "Gllogovc",
    "lat": "42.6283",
    "lng": "20.8939",
    "country": "Kosovo"
  },
  {
    "city_ascii": "Mitrovice",
    "lat": "42.8833",
    "lng": "20.8667",
    "country": "Kosovo"
  },
  {
    "city_ascii": "Skenderaj",
    "lat": "42.7467",
    "lng": "20.7886",
    "country": "Kosovo"
  },
  {
    "city_ascii": "Novoberde",
    "lat": "42.6178",
    "lng": "21.4197",
    "country": "Kosovo"
  },
  {
    "city_ascii": "Gracanice",
    "lat": "42.6011",
    "lng": "21.1958",
    "country": "Kosovo"
  },
  {
    "city_ascii": "Longyearbyen",
    "lat": "78.2167",
    "lng": "15.6333",
    "country": "Svalbard"
  },
  {
    "city_ascii": "Sanaa",
    "lat": "15.3547",
    "lng": "44.2066",
    "country": "Yemen"
  },
  {
    "city_ascii": "Marib",
    "lat": "15.421",
    "lng": "45.334",
    "country": "Yemen"
  },
  {
    "city_ascii": "Al Jabin",
    "lat": "14.704",
    "lng": "43.599",
    "country": "Yemen"
  },
  {
    "city_ascii": "Hajjah",
    "lat": "15.6917",
    "lng": "43.6021",
    "country": "Yemen"
  },
  {
    "city_ascii": "Ibb",
    "lat": "13.9759",
    "lng": "44.1709",
    "country": "Yemen"
  },
  {
    "city_ascii": "Al Hudaydah",
    "lat": "14.7979",
    "lng": "42.953",
    "country": "Yemen"
  },
  {
    "city_ascii": "Lahij",
    "lat": "13.0582",
    "lng": "44.8838",
    "country": "Yemen"
  },
  {
    "city_ascii": "Al Mahwit",
    "lat": "15.4701",
    "lng": "43.5448",
    "country": "Yemen"
  },
  {
    "city_ascii": "Taizz",
    "lat": "13.6045",
    "lng": "44.0394",
    "country": "Yemen"
  },
  {
    "city_ascii": "Sadah",
    "lat": "16.9398",
    "lng": "43.8498",
    "country": "Yemen"
  },
  {
    "city_ascii": "Dhamar",
    "lat": "14.5575",
    "lng": "44.3875",
    "country": "Yemen"
  },
  {
    "city_ascii": "`Amran",
    "lat": "15.6594",
    "lng": "43.9439",
    "country": "Yemen"
  },
  {
    "city_ascii": "Ad Dali`",
    "lat": "13.6957",
    "lng": "44.7314",
    "country": "Yemen"
  },
  {
    "city_ascii": "Saywun",
    "lat": "15.943",
    "lng": "48.7873",
    "country": "Yemen"
  },
  {
    "city_ascii": "Al Bayda",
    "lat": "13.979",
    "lng": "45.574",
    "country": "Yemen"
  },
  {
    "city_ascii": "Zinjibar",
    "lat": "13.1287",
    "lng": "45.3807",
    "country": "Yemen"
  },
  {
    "city_ascii": "Rida",
    "lat": "14.4295",
    "lng": "44.8341",
    "country": "Yemen"
  },
  {
    "city_ascii": "'Ataq",
    "lat": "14.55",
    "lng": "46.8",
    "country": "Yemen"
  },
  {
    "city_ascii": "Al Ghaydah",
    "lat": "16.2394",
    "lng": "52.1638",
    "country": "Yemen"
  },
  {
    "city_ascii": "Sayhut",
    "lat": "15.2105",
    "lng": "51.2454",
    "country": "Yemen"
  },
  {
    "city_ascii": "Al Mukalla",
    "lat": "14.5412",
    "lng": "49.1259",
    "country": "Yemen"
  },
  {
    "city_ascii": "Al Hazm",
    "lat": "16.1641",
    "lng": "44.7769",
    "country": "Yemen"
  },
  {
    "city_ascii": "Zabid",
    "lat": "14.1951",
    "lng": "43.3155",
    "country": "Yemen"
  },
  {
    "city_ascii": "Aden",
    "lat": "12.7797",
    "lng": "45.0095",
    "country": "Yemen"
  },
  {
    "city_ascii": "Hadiboh",
    "lat": "12.6519",
    "lng": "54.0239",
    "country": "Yemen"
  },
  {
    "city_ascii": "Ash Shihr",
    "lat": "14.7593",
    "lng": "49.6092",
    "country": "Yemen"
  },
  {
    "city_ascii": "Dzaoudzi",
    "lat": "-12.7871",
    "lng": "45.275",
    "country": "Mayotte"
  },
  {
    "city_ascii": "Pretoria",
    "lat": "-25.7069",
    "lng": "28.2294",
    "country": "South Africa"
  },
  {
    "city_ascii": "Lebowakgomo",
    "lat": "-24.1996",
    "lng": "29.5",
    "country": "South Africa"
  },
  {
    "city_ascii": "Potchefstroom",
    "lat": "-26.6996",
    "lng": "27.1",
    "country": "South Africa"
  },
  {
    "city_ascii": "Graaff Reinet",
    "lat": "-32.3",
    "lng": "24.54",
    "country": "South Africa"
  },
  {
    "city_ascii": "Rustenburg",
    "lat": "-25.65",
    "lng": "27.24",
    "country": "South Africa"
  },
  {
    "city_ascii": "Brandfort",
    "lat": "-28.6996",
    "lng": "26.47",
    "country": "South Africa"
  },
  {
    "city_ascii": "Vryheid",
    "lat": "-27.76",
    "lng": "30.79",
    "country": "South Africa"
  },
  {
    "city_ascii": "Vereeniging",
    "lat": "-26.6496",
    "lng": "27.96",
    "country": "South Africa"
  },
  {
    "city_ascii": "Brits",
    "lat": "-25.6296",
    "lng": "27.78",
    "country": "South Africa"
  },
  {
    "city_ascii": "Bethlehem",
    "lat": "-28.2196",
    "lng": "28.3",
    "country": "South Africa"
  },
  {
    "city_ascii": "Ubomba",
    "lat": "-27.5661",
    "lng": "32.0833",
    "country": "South Africa"
  },
  {
    "city_ascii": "Polokwane",
    "lat": "-23.89",
    "lng": "29.45",
    "country": "South Africa"
  },
  {
    "city_ascii": "Springbok",
    "lat": "-29.6667",
    "lng": "17.8833",
    "country": "South Africa"
  },
  {
    "city_ascii": "Thohoyandou",
    "lat": "-22.95",
    "lng": "30.48",
    "country": "South Africa"
  },
  {
    "city_ascii": "Pietermaritzburg",
    "lat": "-29.61",
    "lng": "30.39",
    "country": "South Africa"
  },
  {
    "city_ascii": "Poffader",
    "lat": "-29.1329",
    "lng": "19.3834",
    "country": "South Africa"
  },
  {
    "city_ascii": "Carnarvon",
    "lat": "-30.9496",
    "lng": "22.1333",
    "country": "South Africa"
  },
  {
    "city_ascii": "Kroonstad",
    "lat": "-27.66",
    "lng": "27.21",
    "country": "South Africa"
  },
  {
    "city_ascii": "Alexander Bay",
    "lat": "-28.6083",
    "lng": "16.5033",
    "country": "South Africa"
  },
  {
    "city_ascii": "Bloemhof",
    "lat": "-27.6496",
    "lng": "25.59",
    "country": "South Africa"
  },
  {
    "city_ascii": "Hermanus",
    "lat": "-34.4096",
    "lng": "19.2299",
    "country": "South Africa"
  },
  {
    "city_ascii": "Bethal",
    "lat": "-26.4696",
    "lng": "29.45",
    "country": "South Africa"
  },
  {
    "city_ascii": "Upington",
    "lat": "-28.46",
    "lng": "21.23",
    "country": "South Africa"
  },
  {
    "city_ascii": "Tzaneen",
    "lat": "-23.8195",
    "lng": "30.17",
    "country": "South Africa"
  },
  {
    "city_ascii": "Vanhynsdorp",
    "lat": "-31.6166",
    "lng": "18.7333",
    "country": "South Africa"
  },
  {
    "city_ascii": "Musina",
    "lat": "-22.34",
    "lng": "30.03",
    "country": "South Africa"
  },
  {
    "city_ascii": "Kimberley",
    "lat": "-28.7468",
    "lng": "24.77",
    "country": "South Africa"
  },
  {
    "city_ascii": "Durban",
    "lat": "-29.865",
    "lng": "30.98",
    "country": "South Africa"
  },
  {
    "city_ascii": "Klerksdorp",
    "lat": "-26.88",
    "lng": "26.62",
    "country": "South Africa"
  },
  {
    "city_ascii": "Welkom",
    "lat": "-27.97",
    "lng": "26.73",
    "country": "South Africa"
  },
  {
    "city_ascii": "De Aar",
    "lat": "-30.65",
    "lng": "24",
    "country": "South Africa"
  },
  {
    "city_ascii": "Prieska",
    "lat": "-29.6595",
    "lng": "22.73",
    "country": "South Africa"
  },
  {
    "city_ascii": "Saldanha",
    "lat": "-33.01",
    "lng": "17.93",
    "country": "South Africa"
  },
  {
    "city_ascii": "Middelburg",
    "lat": "-31.5",
    "lng": "25.01",
    "country": "South Africa"
  },
  {
    "city_ascii": "Port St. Johns",
    "lat": "-31.6279",
    "lng": "29.5283",
    "country": "South Africa"
  },
  {
    "city_ascii": "Volksrust",
    "lat": "-27.3596",
    "lng": "29.89",
    "country": "South Africa"
  },
  {
    "city_ascii": "Ulundi",
    "lat": "-28.3296",
    "lng": "31.41",
    "country": "South Africa"
  },
  {
    "city_ascii": "Beaufort West",
    "lat": "-32.3496",
    "lng": "22.57",
    "country": "South Africa"
  },
  {
    "city_ascii": "Komatipoort",
    "lat": "-25.4096",
    "lng": "31.94",
    "country": "South Africa"
  },
  {
    "city_ascii": "Nelspruit",
    "lat": "-25.4745",
    "lng": "30.9703",
    "country": "South Africa"
  },
  {
    "city_ascii": "Standerton",
    "lat": "-26.9395",
    "lng": "29.24",
    "country": "South Africa"
  },
  {
    "city_ascii": "Johannesburg",
    "lat": "-26.17",
    "lng": "28.03",
    "country": "South Africa"
  },
  {
    "city_ascii": "Kuruman",
    "lat": "-27.4496",
    "lng": "23.42",
    "country": "South Africa"
  },
  {
    "city_ascii": "Paarl",
    "lat": "-33.6996",
    "lng": "18.96",
    "country": "South Africa"
  },
  {
    "city_ascii": "Worcester",
    "lat": "-33.64",
    "lng": "19.4399",
    "country": "South Africa"
  },
  {
    "city_ascii": "Colesberg",
    "lat": "-30.7195",
    "lng": "25.1",
    "country": "South Africa"
  },
  {
    "city_ascii": "Umtata",
    "lat": "-31.58",
    "lng": "28.79",
    "country": "South Africa"
  },
  {
    "city_ascii": "Aliwal North",
    "lat": "-30.6896",
    "lng": "26.71",
    "country": "South Africa"
  },
  {
    "city_ascii": "Middelburg",
    "lat": "-25.7596",
    "lng": "29.47",
    "country": "South Africa"
  },
  {
    "city_ascii": "Springs",
    "lat": "-26.2696",
    "lng": "28.43",
    "country": "South Africa"
  },
  {
    "city_ascii": "Benoni",
    "lat": "-26.1496",
    "lng": "28.3299",
    "country": "South Africa"
  },
  {
    "city_ascii": "Port Shepstone",
    "lat": "-30.7195",
    "lng": "30.46",
    "country": "South Africa"
  },
  {
    "city_ascii": "Oudtshoorn",
    "lat": "-33.58",
    "lng": "22.19",
    "country": "South Africa"
  },
  {
    "city_ascii": "Port Elizabeth",
    "lat": "-33.97",
    "lng": "25.6",
    "country": "South Africa"
  },
  {
    "city_ascii": "Port Alfred",
    "lat": "-33.5995",
    "lng": "26.88",
    "country": "South Africa"
  },
  {
    "city_ascii": "East London",
    "lat": "-32.97",
    "lng": "27.87",
    "country": "South Africa"
  },
  {
    "city_ascii": "Mossel Bay",
    "lat": "-34.17",
    "lng": "22.13",
    "country": "South Africa"
  },
  {
    "city_ascii": "Vryburg",
    "lat": "-26.96",
    "lng": "24.73",
    "country": "South Africa"
  },
  {
    "city_ascii": "Uitenhage",
    "lat": "-33.7596",
    "lng": "25.39",
    "country": "South Africa"
  },
  {
    "city_ascii": "Bhisho",
    "lat": "-32.87",
    "lng": "27.39",
    "country": "South Africa"
  },
  {
    "city_ascii": "Knysna",
    "lat": "-34.0329",
    "lng": "23.0333",
    "country": "South Africa"
  },
  {
    "city_ascii": "Queenstown",
    "lat": "-31.8996",
    "lng": "26.88",
    "country": "South Africa"
  },
  {
    "city_ascii": "Cradock",
    "lat": "-32.1995",
    "lng": "25.61",
    "country": "South Africa"
  },
  {
    "city_ascii": "Bredasdorp",
    "lat": "-34.5295",
    "lng": "20.03",
    "country": "South Africa"
  },
  {
    "city_ascii": "Swellendam",
    "lat": "-34.0196",
    "lng": "20.43",
    "country": "South Africa"
  },
  {
    "city_ascii": "Ladysmith",
    "lat": "-28.5495",
    "lng": "29.78",
    "country": "South Africa"
  },
  {
    "city_ascii": "George",
    "lat": "-33.95",
    "lng": "22.45",
    "country": "South Africa"
  },
  {
    "city_ascii": "Grahamstown",
    "lat": "-33.2996",
    "lng": "26.52",
    "country": "South Africa"
  },
  {
    "city_ascii": "Mmabatho",
    "lat": "-25.83",
    "lng": "25.61",
    "country": "South Africa"
  },
  {
    "city_ascii": "Mahikeng",
    "lat": "-25.8652",
    "lng": "25.6442",
    "country": "South Africa"
  },
  {
    "city_ascii": "Bloemfontein",
    "lat": "-29.12",
    "lng": "26.2299",
    "country": "South Africa"
  },
  {
    "city_ascii": "Cape Town",
    "lat": "-33.92",
    "lng": "18.435",
    "country": "South Africa"
  },
  {
    "city_ascii": "Zambezi",
    "lat": "-13.54",
    "lng": "23.1099",
    "country": "Zambia"
  },
  {
    "city_ascii": "Solwezi",
    "lat": "-12.1796",
    "lng": "26.4",
    "country": "Zambia"
  },
  {
    "city_ascii": "Lusaka",
    "lat": "-15.4166",
    "lng": "28.2833",
    "country": "Zambia"
  },
  {
    "city_ascii": "Kaoma",
    "lat": "-14.7796",
    "lng": "24.8",
    "country": "Zambia"
  },
  {
    "city_ascii": "Chipata",
    "lat": "-13.6296",
    "lng": "32.64",
    "country": "Zambia"
  },
  {
    "city_ascii": "Senanga",
    "lat": "-16.1196",
    "lng": "23.27",
    "country": "Zambia"
  },
  {
    "city_ascii": "Sesheke",
    "lat": "-17.4695",
    "lng": "24.3",
    "country": "Zambia"
  },
  {
    "city_ascii": "Chililabombwe",
    "lat": "-12.3696",
    "lng": "27.82",
    "country": "Zambia"
  },
  {
    "city_ascii": "Chingola",
    "lat": "-12.5396",
    "lng": "27.85",
    "country": "Zambia"
  },
  {
    "city_ascii": "Kasempa",
    "lat": "-13.4596",
    "lng": "25.82",
    "country": "Zambia"
  },
  {
    "city_ascii": "Kitwe",
    "lat": "-12.81",
    "lng": "28.22",
    "country": "Zambia"
  },
  {
    "city_ascii": "Mufulira",
    "lat": "-12.55",
    "lng": "28.26",
    "country": "Zambia"
  },
  {
    "city_ascii": "Nchelenge",
    "lat": "-9.3496",
    "lng": "28.73",
    "country": "Zambia"
  },
  {
    "city_ascii": "Mazabuka",
    "lat": "-15.86",
    "lng": "27.76",
    "country": "Zambia"
  },
  {
    "city_ascii": "Lukulu",
    "lat": "-14.3896",
    "lng": "23.24",
    "country": "Zambia"
  },
  {
    "city_ascii": "Kafue",
    "lat": "-15.78",
    "lng": "28.18",
    "country": "Zambia"
  },
  {
    "city_ascii": "Lundazi",
    "lat": "-12.2895",
    "lng": "33.17",
    "country": "Zambia"
  },
  {
    "city_ascii": "Mansa",
    "lat": "-11.2",
    "lng": "28.89",
    "country": "Zambia"
  },
  {
    "city_ascii": "Mwinilunga",
    "lat": "-11.7396",
    "lng": "24.44",
    "country": "Zambia"
  },
  {
    "city_ascii": "Mumbwa",
    "lat": "-14.9796",
    "lng": "27.07",
    "country": "Zambia"
  },
  {
    "city_ascii": "Kalabo",
    "lat": "-14.9896",
    "lng": "22.68",
    "country": "Zambia"
  },
  {
    "city_ascii": "Nyimba",
    "lat": "-14.5495",
    "lng": "30.81",
    "country": "Zambia"
  },
  {
    "city_ascii": "Kapiri Mposhi",
    "lat": "-13.9696",
    "lng": "28.66",
    "country": "Zambia"
  },
  {
    "city_ascii": "Kabwe",
    "lat": "-14.44",
    "lng": "28.45",
    "country": "Zambia"
  },
  {
    "city_ascii": "Ndola",
    "lat": "-12.9999",
    "lng": "28.65",
    "country": "Zambia"
  },
  {
    "city_ascii": "Kasama",
    "lat": "-10.1996",
    "lng": "31.1799",
    "country": "Zambia"
  },
  {
    "city_ascii": "Mbala",
    "lat": "-8.84",
    "lng": "31.37",
    "country": "Zambia"
  },
  {
    "city_ascii": "Kawambwa",
    "lat": "-9.7795",
    "lng": "29.08",
    "country": "Zambia"
  },
  {
    "city_ascii": "Luanshya",
    "lat": "-13.1333",
    "lng": "28.4",
    "country": "Zambia"
  },
  {
    "city_ascii": "Mongu",
    "lat": "-15.2796",
    "lng": "23.12",
    "country": "Zambia"
  },
  {
    "city_ascii": "Mpika",
    "lat": "-11.83",
    "lng": "31.46",
    "country": "Zambia"
  },
  {
    "city_ascii": "Chinsali",
    "lat": "-10.5496",
    "lng": "32.06",
    "country": "Zambia"
  },
  {
    "city_ascii": "Livingstone",
    "lat": "-17.86",
    "lng": "25.86",
    "country": "Zambia"
  },
  {
    "city_ascii": "Choma",
    "lat": "-16.8095",
    "lng": "26.97",
    "country": "Zambia"
  },
  {
    "city_ascii": "Plumtree",
    "lat": "-20.4795",
    "lng": "27.82",
    "country": "Zimbabwe"
  },
  {
    "city_ascii": "Kariba",
    "lat": "-16.5296",
    "lng": "28.8",
    "country": "Zimbabwe"
  },
  {
    "city_ascii": "Hwange",
    "lat": "-18.37",
    "lng": "26.5",
    "country": "Zimbabwe"
  },
  {
    "city_ascii": "Chiredzi",
    "lat": "-21.0496",
    "lng": "31.66",
    "country": "Zimbabwe"
  },
  {
    "city_ascii": "Mazowe",
    "lat": "-17.5196",
    "lng": "30.97",
    "country": "Zimbabwe"
  },
  {
    "city_ascii": "Zvishavane",
    "lat": "-20.3296",
    "lng": "30.05",
    "country": "Zimbabwe"
  },
  {
    "city_ascii": "Shamva",
    "lat": "-17.3196",
    "lng": "31.57",
    "country": "Zimbabwe"
  },
  {
    "city_ascii": "Harare",
    "lat": "-17.8178",
    "lng": "31.0447",
    "country": "Zimbabwe"
  },
  {
    "city_ascii": "Kwekwe",
    "lat": "-18.9296",
    "lng": "29.8",
    "country": "Zimbabwe"
  },
  {
    "city_ascii": "Kadoma",
    "lat": "-18.33",
    "lng": "29.9099",
    "country": "Zimbabwe"
  },
  {
    "city_ascii": "Gwanda",
    "lat": "-20.9396",
    "lng": "29.01",
    "country": "Zimbabwe"
  },
  {
    "city_ascii": "Chinhoyi",
    "lat": "-17.3596",
    "lng": "30.18",
    "country": "Zimbabwe"
  },
  {
    "city_ascii": "Beitbridge",
    "lat": "-22.2096",
    "lng": "29.99",
    "country": "Zimbabwe"
  },
  {
    "city_ascii": "Mutare",
    "lat": "-18.97",
    "lng": "32.65",
    "country": "Zimbabwe"
  },
  {
    "city_ascii": "Gweru",
    "lat": "-19.45",
    "lng": "29.82",
    "country": "Zimbabwe"
  },
  {
    "city_ascii": "Karoi",
    "lat": "-16.8196",
    "lng": "29.68",
    "country": "Zimbabwe"
  },
  {
    "city_ascii": "Masvingo",
    "lat": "-20.0596",
    "lng": "30.82",
    "country": "Zimbabwe"
  },
  {
    "city_ascii": "Bulawayo",
    "lat": "-20.17",
    "lng": "28.58",
    "country": "Zimbabwe"
  },
  {
    "city_ascii": "Victoria Falls",
    "lat": "-17.9296",
    "lng": "25.84",
    "country": "Zimbabwe"
  },
  {
    "city_ascii": "Chitungwiza",
    "lat": "-18",
    "lng": "31.1",
    "country": "Zimbabwe"
  },
  {
    "city_ascii": "Maqat",
    "lat": "47.6482",
    "lng": "53.3265",
    "country": "Kazakhstan"
  },
  {
    "city_ascii": "Zhangaozen",
    "lat": "43.3004",
    "lng": "52.8",
    "country": "Kazakhstan"
  },
  {
    "city_ascii": "Taraz",
    "lat": "42.9",
    "lng": "71.365",
    "country": "Kazakhstan"
  },
  {
    "city_ascii": "Shymkent",
    "lat": "42.32",
    "lng": "69.595",
    "country": "Kazakhstan"
  },
  {
    "city_ascii": "Oral",
    "lat": "51.2711",
    "lng": "51.335",
    "country": "Kazakhstan"
  },
  {
    "city_ascii": "Balqash",
    "lat": "46.8532",
    "lng": "74.9502",
    "country": "Kazakhstan"
  },
  {
    "city_ascii": "Zaysan",
    "lat": "47.4752",
    "lng": "84.8598",
    "country": "Kazakhstan"
  },
  {
    "city_ascii": "Oytal",
    "lat": "42.9153",
    "lng": "73.2549",
    "country": "Kazakhstan"
  },
  {
    "city_ascii": "Zholymbet",
    "lat": "51.7502",
    "lng": "71.7099",
    "country": "Kazakhstan"
  },
  {
    "city_ascii": "Serebryansk",
    "lat": "49.6999",
    "lng": "83.4249",
    "country": "Kazakhstan"
  },
  {
    "city_ascii": "Chapaev",
    "lat": "50.1915",
    "lng": "51.1449",
    "country": "Kazakhstan"
  },
  {
    "city_ascii": "Ridder",
    "lat": "50.3554",
    "lng": "83.5149",
    "country": "Kazakhstan"
  },
  {
    "city_ascii": "Zhaltyr",
    "lat": "51.6324",
    "lng": "69.8328",
    "country": "Kazakhstan"
  },
  {
    "city_ascii": "Atbasar",
    "lat": "51.8219",
    "lng": "68.3477",
    "country": "Kazakhstan"
  },
  {
    "city_ascii": "Aqsay",
    "lat": "51.1714",
    "lng": "53.0349",
    "country": "Kazakhstan"
  },
  {
    "city_ascii": "Shemonaikha",
    "lat": "50.6316",
    "lng": "81.905",
    "country": "Kazakhstan"
  },
  {
    "city_ascii": "Atasu",
    "lat": "48.6903",
    "lng": "71.6499",
    "country": "Kazakhstan"
  },
  {
    "city_ascii": "Rudny",
    "lat": "52.9527",
    "lng": "63.13",
    "country": "Kazakhstan"
  },
  {
    "city_ascii": "Makhambet",
    "lat": "47.6714",
    "lng": "51.5798",
    "country": "Kazakhstan"
  },
  {
    "city_ascii": "Fort Shevchenko",
    "lat": "44.5171",
    "lng": "50.2666",
    "country": "Kazakhstan"
  },
  {
    "city_ascii": "Qusmuryn",
    "lat": "52.458",
    "lng": "64.6",
    "country": "Kazakhstan"
  },
  {
    "city_ascii": "Oktyabrsk",
    "lat": "49.4731",
    "lng": "57.4449",
    "country": "Kazakhstan"
  },
  {
    "city_ascii": "Khromtau",
    "lat": "50.2699",
    "lng": "58.45",
    "country": "Kazakhstan"
  },
  {
    "city_ascii": "Algha",
    "lat": "49.9032",
    "lng": "57.335",
    "country": "Kazakhstan"
  },
  {
    "city_ascii": "Embi",
    "lat": "48.8268",
    "lng": "58.1442",
    "country": "Kazakhstan"
  },
  {
    "city_ascii": "Ushtobe",
    "lat": "45.2653",
    "lng": "77.97",
    "country": "Kazakhstan"
  },
  {
    "city_ascii": "Burylbaytal",
    "lat": "44.9387",
    "lng": "74.0303",
    "country": "Kazakhstan"
  },
  {
    "city_ascii": "Zhanibek",
    "lat": "49.4276",
    "lng": "46.8772",
    "country": "Kazakhstan"
  },
  {
    "city_ascii": "Esil",
    "lat": "51.957",
    "lng": "66.3775",
    "country": "Kazakhstan"
  },
  {
    "city_ascii": "Derzhavinsk",
    "lat": "51.1021",
    "lng": "66.3075",
    "country": "Kazakhstan"
  },
  {
    "city_ascii": "Saryshaghan",
    "lat": "46.1195",
    "lng": "73.6191",
    "country": "Kazakhstan"
  },
  {
    "city_ascii": "Turgay",
    "lat": "49.626",
    "lng": "63.499",
    "country": "Kazakhstan"
  },
  {
    "city_ascii": "Sarqan",
    "lat": "45.4203",
    "lng": "79.9149",
    "country": "Kazakhstan"
  },
  {
    "city_ascii": "Arqalyq",
    "lat": "50.2418",
    "lng": "66.8976",
    "country": "Kazakhstan"
  },
  {
    "city_ascii": "Shalqar",
    "lat": "47.8363",
    "lng": "59.6141",
    "country": "Kazakhstan"
  },
  {
    "city_ascii": "Shieli",
    "lat": "44.167",
    "lng": "66.75",
    "country": "Kazakhstan"
  },
  {
    "city_ascii": "Bayghanin",
    "lat": "48.6917",
    "lng": "55.874",
    "country": "Kazakhstan"
  },
  {
    "city_ascii": "Zhezqazghan",
    "lat": "47.78",
    "lng": "67.77",
    "country": "Kazakhstan"
  },
  {
    "city_ascii": "Mangyshlak",
    "lat": "43.6905",
    "lng": "51.1417",
    "country": "Kazakhstan"
  },
  {
    "city_ascii": "Zhosaly",
    "lat": "45.4877",
    "lng": "64.078",
    "country": "Kazakhstan"
  },
  {
    "city_ascii": "Beyneu",
    "lat": "45.1834",
    "lng": "55.1",
    "country": "Kazakhstan"
  },
  {
    "city_ascii": "Qazaly",
    "lat": "45.7628",
    "lng": "62.1075",
    "country": "Kazakhstan"
  },
  {
    "city_ascii": "Aral",
    "lat": "46.8",
    "lng": "61.6666",
    "country": "Kazakhstan"
  },
  {
    "city_ascii": "Ayakoz",
    "lat": "47.9647",
    "lng": "80.4297",
    "country": "Kazakhstan"
  },
  {
    "city_ascii": "Urzhar",
    "lat": "47.1002",
    "lng": "81.6048",
    "country": "Kazakhstan"
  },
  {
    "city_ascii": "Qapshaghay",
    "lat": "43.8844",
    "lng": "77.0687",
    "country": "Kazakhstan"
  },
  {
    "city_ascii": "Esik",
    "lat": "43.3691",
    "lng": "77.4438",
    "country": "Kazakhstan"
  },
  {
    "city_ascii": "Turkistan",
    "lat": "43.3016",
    "lng": "68.2549",
    "country": "Kazakhstan"
  },
  {
    "city_ascii": "Qaratau",
    "lat": "43.1854",
    "lng": "70.46",
    "country": "Kazakhstan"
  },
  {
    "city_ascii": "Sharbaqty",
    "lat": "52.4999",
    "lng": "78.1499",
    "country": "Kazakhstan"
  },
  {
    "city_ascii": "Oostanay",
    "lat": "53.2209",
    "lng": "63.6283",
    "country": "Kazakhstan"
  },
  {
    "city_ascii": "Kachiry",
    "lat": "53.0804",
    "lng": "76.09",
    "country": "Kazakhstan"
  },
  {
    "city_ascii": "Kishkenekol",
    "lat": "53.6368",
    "lng": "72.3414",
    "country": "Kazakhstan"
  },
  {
    "city_ascii": "Bulaevo",
    "lat": "54.9053",
    "lng": "70.44",
    "country": "Kazakhstan"
  },
  {
    "city_ascii": "Shonzhy",
    "lat": "43.5421",
    "lng": "79.4703",
    "country": "Kazakhstan"
  },
  {
    "city_ascii": "Qyzylorda",
    "lat": "44.8",
    "lng": "65.465",
    "country": "Kazakhstan"
  },
  {
    "city_ascii": "Qaraghandy",
    "lat": "49.885",
    "lng": "73.115",
    "country": "Kazakhstan"
  },
  {
    "city_ascii": "Ertis",
    "lat": "53.3453",
    "lng": "75.4499",
    "country": "Kazakhstan"
  },
  {
    "city_ascii": "Tayynsha",
    "lat": "53.8481",
    "lng": "69.7638",
    "country": "Kazakhstan"
  },
  {
    "city_ascii": "Qulan",
    "lat": "42.9204",
    "lng": "72.705",
    "country": "Kazakhstan"
  },
  {
    "city_ascii": "Shu",
    "lat": "43.5953",
    "lng": "73.7448",
    "country": "Kazakhstan"
  },
  {
    "city_ascii": "Kentau",
    "lat": "43.5165",
    "lng": "68.5199",
    "country": "Kazakhstan"
  },
  {
    "city_ascii": "Oskemen",
    "lat": "49.99",
    "lng": "82.6149",
    "country": "Kazakhstan"
  },
  {
    "city_ascii": "Aqtau",
    "lat": "43.6232",
    "lng": "51.2365",
    "country": "Kazakhstan"
  },
  {
    "city_ascii": "Taldyqorghan",
    "lat": "45",
    "lng": "78.4",
    "country": "Kazakhstan"
  },
  {
    "city_ascii": "Astana",
    "lat": "51.1811",
    "lng": "71.4278",
    "country": "Kazakhstan"
  },
  {
    "city_ascii": "Aqtobe",
    "lat": "50.28",
    "lng": "57.17",
    "country": "Kazakhstan"
  },
  {
    "city_ascii": "Kokshetau",
    "lat": "53.3",
    "lng": "69.42",
    "country": "Kazakhstan"
  },
  {
    "city_ascii": "Petropavlovsk",
    "lat": "54.88",
    "lng": "69.22",
    "country": "Kazakhstan"
  },
  {
    "city_ascii": "Pavlodar",
    "lat": "52.3",
    "lng": "76.95",
    "country": "Kazakhstan"
  },
  {
    "city_ascii": "Otar",
    "lat": "43.5346",
    "lng": "75.2139",
    "country": "Kazakhstan"
  },
  {
    "city_ascii": "Almaty",
    "lat": "43.325",
    "lng": "76.915",
    "country": "Kazakhstan"
  },
  {
    "city_ascii": "Bestobe",
    "lat": "52.4997",
    "lng": "73.0997",
    "country": "Kazakhstan"
  },
  {
    "city_ascii": "Arys",
    "lat": "42.4369",
    "lng": "68.8048",
    "country": "Kazakhstan"
  },
  {
    "city_ascii": "Lenger",
    "lat": "42.1899",
    "lng": "69.8799",
    "country": "Kazakhstan"
  },
  {
    "city_ascii": "Aqsu",
    "lat": "52.4502",
    "lng": "71.9597",
    "country": "Kazakhstan"
  },
  {
    "city_ascii": "Temirtau",
    "lat": "50.065",
    "lng": "72.965",
    "country": "Kazakhstan"
  },
  {
    "city_ascii": "Makinsk",
    "lat": "52.6404",
    "lng": "70.41",
    "country": "Kazakhstan"
  },
  {
    "city_ascii": "Osakarovka",
    "lat": "50.5799",
    "lng": "72.5699",
    "country": "Kazakhstan"
  },
  {
    "city_ascii": "Qarqaraly",
    "lat": "49.4249",
    "lng": "75.4649",
    "country": "Kazakhstan"
  },
  {
    "city_ascii": "Ekibastuz",
    "lat": "51.73",
    "lng": "75.3199",
    "country": "Kazakhstan"
  },
  {
    "city_ascii": "Zyryanovsk",
    "lat": "49.7453",
    "lng": "84.2548",
    "country": "Kazakhstan"
  },
  {
    "city_ascii": "Komsomolets",
    "lat": "53.7506",
    "lng": "62.0502",
    "country": "Kazakhstan"
  },
  {
    "city_ascii": "Baykonur",
    "lat": "45.6914",
    "lng": "63.2413",
    "country": "Kazakhstan"
  },
  {
    "city_ascii": "Erymentau",
    "lat": "51.6303",
    "lng": "73.1049",
    "country": "Kazakhstan"
  },
  {
    "city_ascii": "Qarazhal",
    "lat": "48.0253",
    "lng": "70.7999",
    "country": "Kazakhstan"
  },
  {
    "city_ascii": "Tobol",
    "lat": "52.698",
    "lng": "62.5749",
    "country": "Kazakhstan"
  },
  {
    "city_ascii": "Shar",
    "lat": "49.6003",
    "lng": "81.0549",
    "country": "Kazakhstan"
  },
  {
    "city_ascii": "Semey",
    "lat": "50.435",
    "lng": "80.275",
    "country": "Kazakhstan"
  },
  {
    "city_ascii": "Boralday",
    "lat": "43.3341",
    "lng": "76.8288",
    "country": "Kazakhstan"
  },
  {
    "city_ascii": "Zhetiqara",
    "lat": "52.193",
    "lng": "61.2399",
    "country": "Kazakhstan"
  },
  {
    "city_ascii": "Aqadyr",
    "lat": "48.2749",
    "lng": "72.8599",
    "country": "Kazakhstan"
  },
  {
    "city_ascii": "Zharkent",
    "lat": "44.1616",
    "lng": "79.9801",
    "country": "Kazakhstan"
  },
  {
    "city_ascii": "Qulsary",
    "lat": "46.9833",
    "lng": "54.0165",
    "country": "Kazakhstan"
  },
  {
    "city_ascii": "Balyqshy",
    "lat": "47.0666",
    "lng": "51.8666",
    "country": "Kazakhstan"
  },
  {
    "city_ascii": "Atyrau",
    "lat": "47.1127",
    "lng": "51.92",
    "country": "Kazakhstan"
  },
  {
    "city_ascii": "Xiangkhoang",
    "lat": "19.3337",
    "lng": "103.3666",
    "country": "Laos"
  },
  {
    "city_ascii": "Muang Phonsavan",
    "lat": "19.45",
    "lng": "103.2167",
    "country": "Laos"
  },
  {
    "city_ascii": "Vientiane",
    "lat": "17.9667",
    "lng": "102.6",
    "country": "Laos"
  },
  {
    "city_ascii": "Ban Houayxay",
    "lat": "20.2775",
    "lng": "100.4128",
    "country": "Laos"
  },
  {
    "city_ascii": "Muang Phon-Hong",
    "lat": "18.4957",
    "lng": "102.4142",
    "country": "Laos"
  },
  {
    "city_ascii": "Louang Namtha",
    "lat": "20.95",
    "lng": "101.4167",
    "country": "Laos"
  },
  {
    "city_ascii": "Phongsali",
    "lat": "21.6833",
    "lng": "102.1",
    "country": "Laos"
  },
  {
    "city_ascii": "Thakhek",
    "lat": "17.4112",
    "lng": "104.8361",
    "country": "Laos"
  },
  {
    "city_ascii": "Muang Pakxan",
    "lat": "18.3826",
    "lng": "103.6586",
    "country": "Laos"
  },
  {
    "city_ascii": "Louangphrabang",
    "lat": "19.8845",
    "lng": "102.1416",
    "country": "Laos"
  },
  {
    "city_ascii": "Xaignabouri",
    "lat": "19.2505",
    "lng": "101.7501",
    "country": "Laos"
  },
  {
    "city_ascii": "Savannakhet",
    "lat": "16.5376",
    "lng": "104.773",
    "country": "Laos"
  },
  {
    "city_ascii": "Lamam",
    "lat": "15.4171",
    "lng": "106.6946",
    "country": "Laos"
  },
  {
    "city_ascii": "Pakxe",
    "lat": "15.1221",
    "lng": "105.8183",
    "country": "Laos"
  },
  {
    "city_ascii": "Attapu",
    "lat": "14.808",
    "lng": "106.839",
    "country": "Laos"
  },
  {
    "city_ascii": "Xam Nua",
    "lat": "20.4167",
    "lng": "104.0333",
    "country": "Laos"
  },
  {
    "city_ascii": "Muang Xai",
    "lat": "20.6923",
    "lng": "101.9847",
    "country": "Laos"
  },
  {
    "city_ascii": "Saravan",
    "lat": "15.716",
    "lng": "106.427",
    "country": "Laos"
  },
  {
    "city_ascii": "Champasak",
    "lat": "14.8833",
    "lng": "105.8667",
    "country": "Laos"
  },
  {
    "city_ascii": "Beirut",
    "lat": "33.872",
    "lng": "35.5097",
    "country": "Lebanon"
  },
  {
    "city_ascii": "Zahle",
    "lat": "33.8501",
    "lng": "35.9042",
    "country": "Lebanon"
  },
  {
    "city_ascii": "Baalbek",
    "lat": "34.0058",
    "lng": "36.2181",
    "country": "Lebanon"
  },
  {
    "city_ascii": "B'abda",
    "lat": "33.8333",
    "lng": "35.5333",
    "country": "Lebanon"
  },
  {
    "city_ascii": "Halba",
    "lat": "34.5428",
    "lng": "36.0797",
    "country": "Lebanon"
  },
  {
    "city_ascii": "Saida",
    "lat": "33.563",
    "lng": "35.3688",
    "country": "Lebanon"
  },
  {
    "city_ascii": "Nabatiye et Tahta",
    "lat": "33.3833",
    "lng": "35.45",
    "country": "Lebanon"
  },
  {
    "city_ascii": "Trablous",
    "lat": "34.42",
    "lng": "35.87",
    "country": "Lebanon"
  },
  {
    "city_ascii": "Castries",
    "lat": "14.002",
    "lng": "-61",
    "country": "Saint Lucia"
  },
  {
    "city_ascii": "Gamprin",
    "lat": "47.2197",
    "lng": "9.5113",
    "country": "Liechtenstein"
  },
  {
    "city_ascii": "Triesenberg",
    "lat": "47.1182",
    "lng": "9.5444",
    "country": "Liechtenstein"
  },
  {
    "city_ascii": "Schaan",
    "lat": "47.1661",
    "lng": "9.5096",
    "country": "Liechtenstein"
  },
  {
    "city_ascii": "Ruggell",
    "lat": "47.2408",
    "lng": "9.5247",
    "country": "Liechtenstein"
  },
  {
    "city_ascii": "Mauren",
    "lat": "47.2205",
    "lng": "9.5426",
    "country": "Liechtenstein"
  },
  {
    "city_ascii": "Eschen",
    "lat": "47.2109",
    "lng": "9.5216",
    "country": "Liechtenstein"
  },
  {
    "city_ascii": "Triesen",
    "lat": "47.1101",
    "lng": "9.524",
    "country": "Liechtenstein"
  },
  {
    "city_ascii": "Balzers",
    "lat": "47.0667",
    "lng": "9.5025",
    "country": "Liechtenstein"
  },
  {
    "city_ascii": "Vaduz",
    "lat": "47.1337",
    "lng": "9.5167",
    "country": "Liechtenstein"
  },
  {
    "city_ascii": "Planken",
    "lat": "47.1844",
    "lng": "9.5436",
    "country": "Liechtenstein"
  },
  {
    "city_ascii": "Schellenberg",
    "lat": "47.2325",
    "lng": "9.5463",
    "country": "Liechtenstein"
  },
  {
    "city_ascii": "Colombo",
    "lat": "6.932",
    "lng": "79.8578",
    "country": "Sri Lanka"
  },
  {
    "city_ascii": "Ratnapura",
    "lat": "6.693",
    "lng": "80.386",
    "country": "Sri Lanka"
  },
  {
    "city_ascii": "Matara",
    "lat": "5.949",
    "lng": "80.5428",
    "country": "Sri Lanka"
  },
  {
    "city_ascii": "Sri Jawewardenepura Kotte",
    "lat": "6.9",
    "lng": "79.95",
    "country": "Sri Lanka"
  },
  {
    "city_ascii": "Moratuwa",
    "lat": "6.7804",
    "lng": "79.88",
    "country": "Sri Lanka"
  },
  {
    "city_ascii": "Anuradhapura",
    "lat": "8.35",
    "lng": "80.3833",
    "country": "Sri Lanka"
  },
  {
    "city_ascii": "Galle",
    "lat": "6.03",
    "lng": "80.24",
    "country": "Sri Lanka"
  },
  {
    "city_ascii": "Puttalan",
    "lat": "8.033",
    "lng": "79.826",
    "country": "Sri Lanka"
  },
  {
    "city_ascii": "Kandy",
    "lat": "7.28",
    "lng": "80.67",
    "country": "Sri Lanka"
  },
  {
    "city_ascii": "Badulla",
    "lat": "6.9837",
    "lng": "81.0499",
    "country": "Sri Lanka"
  },
  {
    "city_ascii": "Trincomalee",
    "lat": "8.569",
    "lng": "81.233",
    "country": "Sri Lanka"
  },
  {
    "city_ascii": "Kilinochchi",
    "lat": "9.4004",
    "lng": "80.3999",
    "country": "Sri Lanka"
  },
  {
    "city_ascii": "Batticaloa",
    "lat": "7.717",
    "lng": "81.7",
    "country": "Sri Lanka"
  },
  {
    "city_ascii": "Jaffna",
    "lat": "9.675",
    "lng": "80.005",
    "country": "Sri Lanka"
  },
  {
    "city_ascii": "Bopolu",
    "lat": "7.0667",
    "lng": "-10.4875",
    "country": "Liberia"
  },
  {
    "city_ascii": "Voinjama",
    "lat": "8.4167",
    "lng": "-9.75",
    "country": "Liberia"
  },
  {
    "city_ascii": "Robertsport",
    "lat": "6.7533",
    "lng": "-11.3686",
    "country": "Liberia"
  },
  {
    "city_ascii": "Buchanan",
    "lat": "5.9161",
    "lng": "-10.0525",
    "country": "Liberia"
  },
  {
    "city_ascii": "Monrovia",
    "lat": "6.3106",
    "lng": "-10.8048",
    "country": "Liberia"
  },
  {
    "city_ascii": "Tubmanburg",
    "lat": "6.8706",
    "lng": "-10.8211",
    "country": "Liberia"
  },
  {
    "city_ascii": "Buchanan",
    "lat": "5.8811",
    "lng": "-10.0447",
    "country": "Liberia"
  },
  {
    "city_ascii": "Zwedru",
    "lat": "6.0704",
    "lng": "-8.13",
    "country": "Liberia"
  },
  {
    "city_ascii": "Barclayville",
    "lat": "4.8",
    "lng": "-8.1667",
    "country": "Liberia"
  },
  {
    "city_ascii": "Rivercess",
    "lat": "5.465",
    "lng": "-9.578",
    "country": "Liberia"
  },
  {
    "city_ascii": "Fish Town",
    "lat": "5.1974",
    "lng": "-7.8758",
    "country": "Liberia"
  },
  {
    "city_ascii": "Gbarnga",
    "lat": "7.0104",
    "lng": "-9.49",
    "country": "Liberia"
  },
  {
    "city_ascii": "Kakata",
    "lat": "6.526",
    "lng": "-10.349",
    "country": "Liberia"
  },
  {
    "city_ascii": "Sanniquellie",
    "lat": "7.371",
    "lng": "-8.685",
    "country": "Liberia"
  },
  {
    "city_ascii": "Greenville",
    "lat": "5.0111",
    "lng": "-9.0388",
    "country": "Liberia"
  },
  {
    "city_ascii": "Bensonville",
    "lat": "6.4333",
    "lng": "-10.6",
    "country": "Liberia"
  },
  {
    "city_ascii": "Harper",
    "lat": "4.3754",
    "lng": "-7.717",
    "country": "Liberia"
  },
  {
    "city_ascii": "Maseru",
    "lat": "-29.3167",
    "lng": "27.4833",
    "country": "Lesotho"
  },
  {
    "city_ascii": "Mokhotlong",
    "lat": "-29.291",
    "lng": "29.078",
    "country": "Lesotho"
  },
  {
    "city_ascii": "Thaba-Tseka",
    "lat": "-29.522",
    "lng": "28.6084",
    "country": "Lesotho"
  },
  {
    "city_ascii": "Moyeni",
    "lat": "-30.411",
    "lng": "27.716",
    "country": "Lesotho"
  },
  {
    "city_ascii": "Qacha's Nek",
    "lat": "-30.1154",
    "lng": "28.6894",
    "country": "Lesotho"
  },
  {
    "city_ascii": "Mafetang",
    "lat": "-29.8166",
    "lng": "27.25",
    "country": "Lesotho"
  },
  {
    "city_ascii": "Hlotse",
    "lat": "-28.878",
    "lng": "28.056",
    "country": "Lesotho"
  },
  {
    "city_ascii": "Teyateyaneng",
    "lat": "-29.153",
    "lng": "27.753",
    "country": "Lesotho"
  },
  {
    "city_ascii": "Mohales Hoek",
    "lat": "-30.159",
    "lng": "27.48",
    "country": "Lesotho"
  },
  {
    "city_ascii": "Butha-Buthe",
    "lat": "-28.75",
    "lng": "28.25",
    "country": "Lesotho"
  },
  {
    "city_ascii": "Klaipeda",
    "lat": "55.7204",
    "lng": "21.1199",
    "country": "Lithuania"
  },
  {
    "city_ascii": "Palanga",
    "lat": "55.9203",
    "lng": "21.071",
    "country": "Lithuania"
  },
  {
    "city_ascii": "Nida",
    "lat": "55.3086",
    "lng": "20.9965",
    "country": "Lithuania"
  },
  {
    "city_ascii": "Kretinga",
    "lat": "55.8888",
    "lng": "21.2445",
    "country": "Lithuania"
  },
  {
    "city_ascii": "Taurage",
    "lat": "55.2522",
    "lng": "22.2897",
    "country": "Lithuania"
  },
  {
    "city_ascii": "Silute",
    "lat": "55.3453",
    "lng": "21.4733",
    "country": "Lithuania"
  },
  {
    "city_ascii": "Rietavas",
    "lat": "55.7271",
    "lng": "21.9234",
    "country": "Lithuania"
  },
  {
    "city_ascii": "Plunge",
    "lat": "55.9077",
    "lng": "21.8456",
    "country": "Lithuania"
  },
  {
    "city_ascii": "Silale",
    "lat": "55.4898",
    "lng": "22.1869",
    "country": "Lithuania"
  },
  {
    "city_ascii": "Visaginas",
    "lat": "55.5968",
    "lng": "26.4398",
    "country": "Lithuania"
  },
  {
    "city_ascii": "Zarasai",
    "lat": "55.7322",
    "lng": "26.2512",
    "country": "Lithuania"
  },
  {
    "city_ascii": "Ignalina",
    "lat": "55.3406",
    "lng": "26.1605",
    "country": "Lithuania"
  },
  {
    "city_ascii": "Utena",
    "lat": "55.4976",
    "lng": "25.5992",
    "country": "Lithuania"
  },
  {
    "city_ascii": "Svencionys",
    "lat": "55.133",
    "lng": "26.1595",
    "country": "Lithuania"
  },
  {
    "city_ascii": "Rokiskis",
    "lat": "55.9587",
    "lng": "25.5947",
    "country": "Lithuania"
  },
  {
    "city_ascii": "Moletai",
    "lat": "55.2247",
    "lng": "25.4169",
    "country": "Lithuania"
  },
  {
    "city_ascii": "Salcininkai",
    "lat": "54.3086",
    "lng": "25.3868",
    "country": "Lithuania"
  },
  {
    "city_ascii": "Vilnius",
    "lat": "54.6834",
    "lng": "25.3166",
    "country": "Lithuania"
  },
  {
    "city_ascii": "Kupiskis",
    "lat": "55.8401",
    "lng": "24.9803",
    "country": "Lithuania"
  },
  {
    "city_ascii": "Trakai",
    "lat": "54.6399",
    "lng": "24.936",
    "country": "Lithuania"
  },
  {
    "city_ascii": "Birzai",
    "lat": "56.1986",
    "lng": "24.7521",
    "country": "Lithuania"
  },
  {
    "city_ascii": "Anyksciai",
    "lat": "55.5246",
    "lng": "25.1066",
    "country": "Lithuania"
  },
  {
    "city_ascii": "Telsiai",
    "lat": "55.9831",
    "lng": "22.2343",
    "country": "Lithuania"
  },
  {
    "city_ascii": "Kelme",
    "lat": "55.6301",
    "lng": "22.9349",
    "country": "Lithuania"
  },
  {
    "city_ascii": "Marijampole",
    "lat": "54.5599",
    "lng": "23.3541",
    "country": "Lithuania"
  },
  {
    "city_ascii": "Lazdijai",
    "lat": "54.2333",
    "lng": "23.5147",
    "country": "Lithuania"
  },
  {
    "city_ascii": "Sakiai",
    "lat": "54.9534",
    "lng": "23.0478",
    "country": "Lithuania"
  },
  {
    "city_ascii": "Radviliskis",
    "lat": "55.8111",
    "lng": "23.5411",
    "country": "Lithuania"
  },
  {
    "city_ascii": "Siauliai",
    "lat": "55.9386",
    "lng": "23.325",
    "country": "Lithuania"
  },
  {
    "city_ascii": "Birstonas",
    "lat": "54.6048",
    "lng": "24.0311",
    "country": "Lithuania"
  },
  {
    "city_ascii": "Druskininkai",
    "lat": "54.0157",
    "lng": "23.987",
    "country": "Lithuania"
  },
  {
    "city_ascii": "Kedainiai",
    "lat": "55.2878",
    "lng": "23.9727",
    "country": "Lithuania"
  },
  {
    "city_ascii": "Alytus",
    "lat": "54.3964",
    "lng": "24.0414",
    "country": "Lithuania"
  },
  {
    "city_ascii": "Prienai",
    "lat": "54.636",
    "lng": "23.9458",
    "country": "Lithuania"
  },
  {
    "city_ascii": "Elektrenai",
    "lat": "54.7863",
    "lng": "24.6626",
    "country": "Lithuania"
  },
  {
    "city_ascii": "Kaunas",
    "lat": "54.9504",
    "lng": "23.88",
    "country": "Lithuania"
  },
  {
    "city_ascii": "Jonava",
    "lat": "55.0801",
    "lng": "24.2754",
    "country": "Lithuania"
  },
  {
    "city_ascii": "Kaisiadorys",
    "lat": "54.8653",
    "lng": "24.4682",
    "country": "Lithuania"
  },
  {
    "city_ascii": "Panevezys",
    "lat": "55.74",
    "lng": "24.37",
    "country": "Lithuania"
  },
  {
    "city_ascii": "Joniskis",
    "lat": "56.2394",
    "lng": "23.6154",
    "country": "Lithuania"
  },
  {
    "city_ascii": "Kazlu Ruda",
    "lat": "54.7497",
    "lng": "23.495",
    "country": "Lithuania"
  },
  {
    "city_ascii": "Vilkaviskis",
    "lat": "54.648",
    "lng": "23.0305",
    "country": "Lithuania"
  },
  {
    "city_ascii": "Pasvalys",
    "lat": "56.0625",
    "lng": "24.3997",
    "country": "Lithuania"
  },
  {
    "city_ascii": "Pakruojis",
    "lat": "55.9789",
    "lng": "23.8551",
    "country": "Lithuania"
  },
  {
    "city_ascii": "Raseiniai",
    "lat": "55.3797",
    "lng": "23.1239",
    "country": "Lithuania"
  },
  {
    "city_ascii": "Pagegiai",
    "lat": "55.1379",
    "lng": "21.9138",
    "country": "Lithuania"
  },
  {
    "city_ascii": "Jurbarkas",
    "lat": "55.0756",
    "lng": "22.7642",
    "country": "Lithuania"
  },
  {
    "city_ascii": "Kalvarija",
    "lat": "54.4172",
    "lng": "23.2283",
    "country": "Lithuania"
  },
  {
    "city_ascii": "Sirvintos",
    "lat": "55.044",
    "lng": "24.9545",
    "country": "Lithuania"
  },
  {
    "city_ascii": "Skuodas",
    "lat": "56.2706",
    "lng": "21.5321",
    "country": "Lithuania"
  },
  {
    "city_ascii": "Mazeikiai",
    "lat": "56.3122",
    "lng": "22.3265",
    "country": "Lithuania"
  },
  {
    "city_ascii": "Akmene",
    "lat": "56.25",
    "lng": "22.75",
    "country": "Lithuania"
  },
  {
    "city_ascii": "Ukmerge",
    "lat": "55.2494",
    "lng": "24.7636",
    "country": "Lithuania"
  },
  {
    "city_ascii": "Varena",
    "lat": "54.2155",
    "lng": "24.5754",
    "country": "Lithuania"
  },
  {
    "city_ascii": "Capellen",
    "lat": "49.645",
    "lng": "5.9908",
    "country": "Luxembourg"
  },
  {
    "city_ascii": "Esch-sur-Alzette",
    "lat": "49.4958",
    "lng": "5.9806",
    "country": "Luxembourg"
  },
  {
    "city_ascii": "Remich",
    "lat": "49.545",
    "lng": "6.3669",
    "country": "Luxembourg"
  },
  {
    "city_ascii": "Echternach",
    "lat": "49.8056",
    "lng": "6.4222",
    "country": "Luxembourg"
  },
  {
    "city_ascii": "Mersch",
    "lat": "49.7489",
    "lng": "6.1061",
    "country": "Luxembourg"
  },
  {
    "city_ascii": "Redange-sur-Attert",
    "lat": "49.7656",
    "lng": "5.8908",
    "country": "Luxembourg"
  },
  {
    "city_ascii": "Vianden",
    "lat": "49.935",
    "lng": "6.2089",
    "country": "Luxembourg"
  },
  {
    "city_ascii": "Wiltz",
    "lat": "49.9689",
    "lng": "5.9319",
    "country": "Luxembourg"
  },
  {
    "city_ascii": "Clervaux",
    "lat": "50.0547",
    "lng": "6.0314",
    "country": "Luxembourg"
  },
  {
    "city_ascii": "Diekirch",
    "lat": "49.8833",
    "lng": "6.1667",
    "country": "Luxembourg"
  },
  {
    "city_ascii": "Grevenmacher",
    "lat": "49.7",
    "lng": "6.3333",
    "country": "Luxembourg"
  },
  {
    "city_ascii": "Luxembourg",
    "lat": "49.6117",
    "lng": "6.13",
    "country": "Luxembourg"
  },
  {
    "city_ascii": "Skrunda",
    "lat": "56.6833",
    "lng": "22.0167",
    "country": "Latvia"
  },
  {
    "city_ascii": "Daugavpils",
    "lat": "55.88",
    "lng": "26.51",
    "country": "Latvia"
  },
  {
    "city_ascii": "Jekabpils",
    "lat": "56.4833",
    "lng": "25.85",
    "country": "Latvia"
  },
  {
    "city_ascii": "Aglona",
    "lat": "56.1333",
    "lng": "27.0167",
    "country": "Latvia"
  },
  {
    "city_ascii": "Lielvarde",
    "lat": "56.7225",
    "lng": "24.805",
    "country": "Latvia"
  },
  {
    "city_ascii": "Saldus",
    "lat": "56.6667",
    "lng": "22.5",
    "country": "Latvia"
  },
  {
    "city_ascii": "Ozolnieki",
    "lat": "56.6864",
    "lng": "23.7878",
    "country": "Latvia"
  },
  {
    "city_ascii": "Broceni",
    "lat": "56.7",
    "lng": "22.5333",
    "country": "Latvia"
  },
  {
    "city_ascii": "Jelgava",
    "lat": "56.6527",
    "lng": "23.7128",
    "country": "Latvia"
  },
  {
    "city_ascii": "Pilsrundale",
    "lat": "56.4167",
    "lng": "24",
    "country": "Latvia"
  },
  {
    "city_ascii": "Dobele",
    "lat": "56.625",
    "lng": "23.2786",
    "country": "Latvia"
  },
  {
    "city_ascii": "Iecava",
    "lat": "56.5986",
    "lng": "24.2022",
    "country": "Latvia"
  },
  {
    "city_ascii": "Jaunpils",
    "lat": "56.7325",
    "lng": "23.0136",
    "country": "Latvia"
  },
  {
    "city_ascii": "Auce",
    "lat": "56.4667",
    "lng": "22.8833",
    "country": "Latvia"
  },
  {
    "city_ascii": "Tukums",
    "lat": "56.9669",
    "lng": "23.1553",
    "country": "Latvia"
  },
  {
    "city_ascii": "Tervete",
    "lat": "56.4781",
    "lng": "23.3867",
    "country": "Latvia"
  },
  {
    "city_ascii": "Salacgriva",
    "lat": "57.7531",
    "lng": "24.359",
    "country": "Latvia"
  },
  {
    "city_ascii": "Ventspils",
    "lat": "57.3899",
    "lng": "21.5606",
    "country": "Latvia"
  },
  {
    "city_ascii": "Dundaga",
    "lat": "57.505",
    "lng": "22.3504",
    "country": "Latvia"
  },
  {
    "city_ascii": "Jaunjelgava",
    "lat": "56.6132",
    "lng": "25.0832",
    "country": "Latvia"
  },
  {
    "city_ascii": "Nereta",
    "lat": "56.2044",
    "lng": "25.3077",
    "country": "Latvia"
  },
  {
    "city_ascii": "Alsunga",
    "lat": "56.9801",
    "lng": "21.564",
    "country": "Latvia"
  },
  {
    "city_ascii": "Kuldiga",
    "lat": "56.969",
    "lng": "21.968",
    "country": "Latvia"
  },
  {
    "city_ascii": "Pavilosta",
    "lat": "56.8898",
    "lng": "21.1817",
    "country": "Latvia"
  },
  {
    "city_ascii": "Pinki",
    "lat": "56.9419",
    "lng": "23.9137",
    "country": "Latvia"
  },
  {
    "city_ascii": "Adazi",
    "lat": "57.0705",
    "lng": "24.3371",
    "country": "Latvia"
  },
  {
    "city_ascii": "Kandava",
    "lat": "57.0389",
    "lng": "22.7724",
    "country": "Latvia"
  },
  {
    "city_ascii": "Roja",
    "lat": "57.5015",
    "lng": "22.8088",
    "country": "Latvia"
  },
  {
    "city_ascii": "Carnikava",
    "lat": "57.1293",
    "lng": "24.2842",
    "country": "Latvia"
  },
  {
    "city_ascii": "Garkalne",
    "lat": "57.0449",
    "lng": "24.4195",
    "country": "Latvia"
  },
  {
    "city_ascii": "Saulkrasti",
    "lat": "57.2599",
    "lng": "24.4189",
    "country": "Latvia"
  },
  {
    "city_ascii": "Smarde",
    "lat": "56.9533",
    "lng": "23.3387",
    "country": "Latvia"
  },
  {
    "city_ascii": "Mersrags",
    "lat": "57.3364",
    "lng": "23.1235",
    "country": "Latvia"
  },
  {
    "city_ascii": "Talsi",
    "lat": "57.2465",
    "lng": "22.5876",
    "country": "Latvia"
  },
  {
    "city_ascii": "Jurmala",
    "lat": "56.9567",
    "lng": "23.7233",
    "country": "Latvia"
  },
  {
    "city_ascii": "Marupe",
    "lat": "56.9032",
    "lng": "24.0467",
    "country": "Latvia"
  },
  {
    "city_ascii": "Ulbroka",
    "lat": "56.9363",
    "lng": "24.3039",
    "country": "Latvia"
  },
  {
    "city_ascii": "Zilupe",
    "lat": "56.386",
    "lng": "28.1218",
    "country": "Latvia"
  },
  {
    "city_ascii": "Ludza",
    "lat": "56.5396",
    "lng": "27.7189",
    "country": "Latvia"
  },
  {
    "city_ascii": "Dagda",
    "lat": "56.0961",
    "lng": "27.5328",
    "country": "Latvia"
  },
  {
    "city_ascii": "Baltinava",
    "lat": "56.9439",
    "lng": "27.644",
    "country": "Latvia"
  },
  {
    "city_ascii": "Cibla",
    "lat": "56.5498",
    "lng": "27.8837",
    "country": "Latvia"
  },
  {
    "city_ascii": "Karsava",
    "lat": "56.7874",
    "lng": "27.6732",
    "country": "Latvia"
  },
  {
    "city_ascii": "Riga",
    "lat": "56.95",
    "lng": "24.1",
    "country": "Latvia"
  },
  {
    "city_ascii": "Kraslava",
    "lat": "55.8969",
    "lng": "27.172",
    "country": "Latvia"
  },
  {
    "city_ascii": "Limbazi",
    "lat": "57.513",
    "lng": "24.724",
    "country": "Latvia"
  },
  {
    "city_ascii": "Preili",
    "lat": "56.294",
    "lng": "26.7248",
    "country": "Latvia"
  },
  {
    "city_ascii": "Vecvarkava",
    "lat": "56.1984",
    "lng": "26.5081",
    "country": "Latvia"
  },
  {
    "city_ascii": "Ilukste",
    "lat": "55.9779",
    "lng": "26.2978",
    "country": "Latvia"
  },
  {
    "city_ascii": "Nica",
    "lat": "56.3456",
    "lng": "21.0646",
    "country": "Latvia"
  },
  {
    "city_ascii": "Bauska",
    "lat": "56.4079",
    "lng": "24.1944",
    "country": "Latvia"
  },
  {
    "city_ascii": "Vilaka",
    "lat": "57.1843",
    "lng": "27.6719",
    "country": "Latvia"
  },
  {
    "city_ascii": "Livani",
    "lat": "56.3567",
    "lng": "26.1761",
    "country": "Latvia"
  },
  {
    "city_ascii": "Aluksne",
    "lat": "57.4216",
    "lng": "27.0466",
    "country": "Latvia"
  },
  {
    "city_ascii": "Rezekne",
    "lat": "56.5",
    "lng": "27.3166",
    "country": "Latvia"
  },
  {
    "city_ascii": "Rugaji",
    "lat": "57.0033",
    "lng": "27.1337",
    "country": "Latvia"
  },
  {
    "city_ascii": "Riebini",
    "lat": "56.3403",
    "lng": "26.7999",
    "country": "Latvia"
  },
  {
    "city_ascii": "Vilani",
    "lat": "56.5505",
    "lng": "26.9298",
    "country": "Latvia"
  },
  {
    "city_ascii": "Varaklani",
    "lat": "56.6091",
    "lng": "26.7547",
    "country": "Latvia"
  },
  {
    "city_ascii": "Ape",
    "lat": "57.5394",
    "lng": "26.694",
    "country": "Latvia"
  },
  {
    "city_ascii": "Madona",
    "lat": "56.851",
    "lng": "26.2184",
    "country": "Latvia"
  },
  {
    "city_ascii": "Jaunpiebalga",
    "lat": "57.1775",
    "lng": "26.0284",
    "country": "Latvia"
  },
  {
    "city_ascii": "Lubana",
    "lat": "56.9043",
    "lng": "26.7161",
    "country": "Latvia"
  },
  {
    "city_ascii": "Gulbene",
    "lat": "57.1734",
    "lng": "26.7527",
    "country": "Latvia"
  },
  {
    "city_ascii": "Balvi",
    "lat": "57.1287",
    "lng": "27.27",
    "country": "Latvia"
  },
  {
    "city_ascii": "Akniste",
    "lat": "56.1615",
    "lng": "25.7482",
    "country": "Latvia"
  },
  {
    "city_ascii": "Viesite",
    "lat": "56.3465",
    "lng": "25.5581",
    "country": "Latvia"
  },
  {
    "city_ascii": "Cesvaine",
    "lat": "56.9675",
    "lng": "26.3076",
    "country": "Latvia"
  },
  {
    "city_ascii": "Kegums",
    "lat": "56.7455",
    "lng": "24.725",
    "country": "Latvia"
  },
  {
    "city_ascii": "Vecpiebalga",
    "lat": "57.0618",
    "lng": "25.8179",
    "country": "Latvia"
  },
  {
    "city_ascii": "Smiltene",
    "lat": "57.4242",
    "lng": "25.9017",
    "country": "Latvia"
  },
  {
    "city_ascii": "Drabesi",
    "lat": "57.2433",
    "lng": "25.2803",
    "country": "Latvia"
  },
  {
    "city_ascii": "Cesis",
    "lat": "57.3091",
    "lng": "25.2761",
    "country": "Latvia"
  },
  {
    "city_ascii": "Ergli",
    "lat": "56.8988",
    "lng": "25.6429",
    "country": "Latvia"
  },
  {
    "city_ascii": "Valka",
    "lat": "57.7767",
    "lng": "26.0118",
    "country": "Latvia"
  },
  {
    "city_ascii": "Grobina",
    "lat": "56.5358",
    "lng": "21.1747",
    "country": "Latvia"
  },
  {
    "city_ascii": "Strenci",
    "lat": "57.6269",
    "lng": "25.6919",
    "country": "Latvia"
  },
  {
    "city_ascii": "Murmuiza",
    "lat": "57.4731",
    "lng": "25.4917",
    "country": "Latvia"
  },
  {
    "city_ascii": "Mazsalaca",
    "lat": "57.8619",
    "lng": "25.0547",
    "country": "Latvia"
  },
  {
    "city_ascii": "Aloja",
    "lat": "57.7672",
    "lng": "24.8774",
    "country": "Latvia"
  },
  {
    "city_ascii": "Burtnieki",
    "lat": "57.6949",
    "lng": "25.275",
    "country": "Latvia"
  },
  {
    "city_ascii": "Koknese",
    "lat": "56.6516",
    "lng": "25.4364",
    "country": "Latvia"
  },
  {
    "city_ascii": "Aizkraukle",
    "lat": "56.6029",
    "lng": "25.2636",
    "country": "Latvia"
  },
  {
    "city_ascii": "Skriveri",
    "lat": "56.6485",
    "lng": "25.1195",
    "country": "Latvia"
  },
  {
    "city_ascii": "Baldone",
    "lat": "56.7445",
    "lng": "24.4008",
    "country": "Latvia"
  },
  {
    "city_ascii": "Vecumnieki",
    "lat": "56.6061",
    "lng": "24.5223",
    "country": "Latvia"
  },
  {
    "city_ascii": "Sala",
    "lat": "56.5047",
    "lng": "25.7618",
    "country": "Latvia"
  },
  {
    "city_ascii": "Plavinas",
    "lat": "56.6177",
    "lng": "25.7194",
    "country": "Latvia"
  },
  {
    "city_ascii": "Liepaga",
    "lat": "56.51",
    "lng": "21.01",
    "country": "Latvia"
  },
  {
    "city_ascii": "Rujiena",
    "lat": "57.8961",
    "lng": "25.3342",
    "country": "Latvia"
  },
  {
    "city_ascii": "Naukseni",
    "lat": "57.8842",
    "lng": "25.458",
    "country": "Latvia"
  },
  {
    "city_ascii": "Liegi",
    "lat": "56.5797",
    "lng": "21.3338",
    "country": "Latvia"
  },
  {
    "city_ascii": "Rauna",
    "lat": "57.3337",
    "lng": "25.6085",
    "country": "Latvia"
  },
  {
    "city_ascii": "Aizpute",
    "lat": "56.7211",
    "lng": "21.6016",
    "country": "Latvia"
  },
  {
    "city_ascii": "Koceni",
    "lat": "57.5198",
    "lng": "25.3404",
    "country": "Latvia"
  },
  {
    "city_ascii": "Valmiera",
    "lat": "57.5387",
    "lng": "25.4257",
    "country": "Latvia"
  },
  {
    "city_ascii": "Sigulda",
    "lat": "57.1538",
    "lng": "24.8595",
    "country": "Latvia"
  },
  {
    "city_ascii": "Priekuli",
    "lat": "57.3115",
    "lng": "25.3571",
    "country": "Latvia"
  },
  {
    "city_ascii": "Ogre",
    "lat": "56.8113",
    "lng": "24.6113",
    "country": "Latvia"
  },
  {
    "city_ascii": "Ragana",
    "lat": "57.1821",
    "lng": "24.7056",
    "country": "Latvia"
  },
  {
    "city_ascii": "Loja",
    "lat": "57.1534",
    "lng": "24.6433",
    "country": "Latvia"
  },
  {
    "city_ascii": "Ropazi",
    "lat": "56.9747",
    "lng": "24.6329",
    "country": "Latvia"
  },
  {
    "city_ascii": "Priekule",
    "lat": "56.4458",
    "lng": "21.5939",
    "country": "Latvia"
  },
  {
    "city_ascii": "Rucava",
    "lat": "56.164",
    "lng": "21.1627",
    "country": "Latvia"
  },
  {
    "city_ascii": "Salaspils",
    "lat": "56.861",
    "lng": "24.3498",
    "country": "Latvia"
  },
  {
    "city_ascii": "Ikskile",
    "lat": "56.834",
    "lng": "24.4968",
    "country": "Latvia"
  },
  {
    "city_ascii": "Incukalns",
    "lat": "57.0987",
    "lng": "24.6863",
    "country": "Latvia"
  },
  {
    "city_ascii": "Malpils",
    "lat": "57.0101",
    "lng": "24.9578",
    "country": "Latvia"
  },
  {
    "city_ascii": "Olaine",
    "lat": "56.7947",
    "lng": "23.9358",
    "country": "Latvia"
  },
  {
    "city_ascii": "Kekava",
    "lat": "56.8296",
    "lng": "24.2318",
    "country": "Latvia"
  },
  {
    "city_ascii": "Ligatne",
    "lat": "57.2379",
    "lng": "25.0436",
    "country": "Latvia"
  },
  {
    "city_ascii": "Stalbe",
    "lat": "57.3708",
    "lng": "25.0324",
    "country": "Latvia"
  },
  {
    "city_ascii": "Vainode",
    "lat": "56.4185",
    "lng": "21.8541",
    "country": "Latvia"
  },
  {
    "city_ascii": "Tripoli",
    "lat": "32.8925",
    "lng": "13.18",
    "country": "Libya"
  },
  {
    "city_ascii": "Gharyan",
    "lat": "32.1704",
    "lng": "13.02",
    "country": "Libya"
  },
  {
    "city_ascii": "Surt",
    "lat": "31.21",
    "lng": "16.59",
    "country": "Libya"
  },
  {
    "city_ascii": "Marzuq",
    "lat": "25.9044",
    "lng": "13.8972",
    "country": "Libya"
  },
  {
    "city_ascii": "Sabha",
    "lat": "27.0333",
    "lng": "14.4333",
    "country": "Libya"
  },
  {
    "city_ascii": "Misratah",
    "lat": "32.38",
    "lng": "15.1",
    "country": "Libya"
  },
  {
    "city_ascii": "Al `Aziziyah",
    "lat": "32.5319",
    "lng": "13.0175",
    "country": "Libya"
  },
  {
    "city_ascii": "Zuwarah",
    "lat": "32.9344",
    "lng": "12.0791",
    "country": "Libya"
  },
  {
    "city_ascii": "Nalut",
    "lat": "31.8804",
    "lng": "10.97",
    "country": "Libya"
  },
  {
    "city_ascii": "Hun",
    "lat": "29.1167",
    "lng": "15.9333",
    "country": "Libya"
  },
  {
    "city_ascii": "Darnah",
    "lat": "32.7648",
    "lng": "22.6391",
    "country": "Libya"
  },
  {
    "city_ascii": "Al Bayda",
    "lat": "32.7604",
    "lng": "21.62",
    "country": "Libya"
  },
  {
    "city_ascii": "Az Zawiyah",
    "lat": "32.7604",
    "lng": "12.72",
    "country": "Libya"
  },
  {
    "city_ascii": "Tajarhi",
    "lat": "24.3704",
    "lng": "14.4708",
    "country": "Libya"
  },
  {
    "city_ascii": "Al Jaghbub",
    "lat": "29.7504",
    "lng": "24.5166",
    "country": "Libya"
  },
  {
    "city_ascii": "Awjilah",
    "lat": "29.108",
    "lng": "21.2869",
    "country": "Libya"
  },
  {
    "city_ascii": "Al Khums",
    "lat": "32.6604",
    "lng": "14.26",
    "country": "Libya"
  },
  {
    "city_ascii": "Ajdabiya",
    "lat": "30.77",
    "lng": "20.22",
    "country": "Libya"
  },
  {
    "city_ascii": "Al Kufrah",
    "lat": "24.1667",
    "lng": "23.2696",
    "country": "Libya"
  },
  {
    "city_ascii": "Al Jawf",
    "lat": "24.2",
    "lng": "23.29",
    "country": "Libya"
  },
  {
    "city_ascii": "As Sidr",
    "lat": "30.6704",
    "lng": "18.2666",
    "country": "Libya"
  },
  {
    "city_ascii": "Umm al Abid",
    "lat": "27.517",
    "lng": "15.0333",
    "country": "Libya"
  },
  {
    "city_ascii": "Banghazi",
    "lat": "32.1167",
    "lng": "20.0667",
    "country": "Libya"
  },
  {
    "city_ascii": "Dirj",
    "lat": "30.1679",
    "lng": "10.4567",
    "country": "Libya"
  },
  {
    "city_ascii": "Mizdah",
    "lat": "31.4337",
    "lng": "12.9833",
    "country": "Libya"
  },
  {
    "city_ascii": "Ghadamis",
    "lat": "30.1333",
    "lng": "9.5",
    "country": "Libya"
  },
  {
    "city_ascii": "Qaminis",
    "lat": "31.6606",
    "lng": "20.0155",
    "country": "Libya"
  },
  {
    "city_ascii": "Awbari",
    "lat": "26.5903",
    "lng": "12.7751",
    "country": "Libya"
  },
  {
    "city_ascii": "Ghat",
    "lat": "24.9647",
    "lng": "10.1728",
    "country": "Libya"
  },
  {
    "city_ascii": "Bani Walid",
    "lat": "31.7704",
    "lng": "13.99",
    "country": "Libya"
  },
  {
    "city_ascii": "Zillah",
    "lat": "28.5504",
    "lng": "17.5834",
    "country": "Libya"
  },
  {
    "city_ascii": "Tmassah",
    "lat": "26.3666",
    "lng": "15.8",
    "country": "Libya"
  },
  {
    "city_ascii": "Idri",
    "lat": "27.4471",
    "lng": "13.0517",
    "country": "Libya"
  },
  {
    "city_ascii": "El Agheila",
    "lat": "30.257",
    "lng": "19.2",
    "country": "Libya"
  },
  {
    "city_ascii": "Birak",
    "lat": "27.5333",
    "lng": "14.2834",
    "country": "Libya"
  },
  {
    "city_ascii": "Maradah",
    "lat": "29.2337",
    "lng": "19.2166",
    "country": "Libya"
  },
  {
    "city_ascii": "Shahhat",
    "lat": "32.8281",
    "lng": "21.8622",
    "country": "Libya"
  },
  {
    "city_ascii": "Al Marj",
    "lat": "32.5005",
    "lng": "20.83",
    "country": "Libya"
  },
  {
    "city_ascii": "Tubruq",
    "lat": "32.08",
    "lng": "23.96",
    "country": "Libya"
  },
  {
    "city_ascii": "Kenitra",
    "lat": "34.2704",
    "lng": "-6.58",
    "country": "Morocco"
  },
  {
    "city_ascii": "Goulimine",
    "lat": "28.98",
    "lng": "-10.07",
    "country": "Morocco"
  },
  {
    "city_ascii": "Fez",
    "lat": "34.0546",
    "lng": "-5.0004",
    "country": "Morocco"
  },
  {
    "city_ascii": "Casablanca",
    "lat": "33.6",
    "lng": "-7.6164",
    "country": "Morocco"
  },
  {
    "city_ascii": "Agadir",
    "lat": "30.44",
    "lng": "-9.62",
    "country": "Morocco"
  },
  {
    "city_ascii": "Beni Mellal",
    "lat": "32.3373",
    "lng": "-6.3498",
    "country": "Morocco"
  },
  {
    "city_ascii": "Tangier",
    "lat": "35.7473",
    "lng": "-5.8327",
    "country": "Morocco"
  },
  {
    "city_ascii": "Settat",
    "lat": "33.0104",
    "lng": "-7.62",
    "country": "Morocco"
  },
  {
    "city_ascii": "Oujda",
    "lat": "34.69",
    "lng": "-1.91",
    "country": "Morocco"
  },
  {
    "city_ascii": "Meknes",
    "lat": "33.9004",
    "lng": "-5.56",
    "country": "Morocco"
  },
  {
    "city_ascii": "Rabat",
    "lat": "34.0253",
    "lng": "-6.8361",
    "country": "Morocco"
  },
  {
    "city_ascii": "Marrakesh",
    "lat": "31.63",
    "lng": "-8",
    "country": "Morocco"
  },
  {
    "city_ascii": "El Jadida",
    "lat": "33.2604",
    "lng": "-8.51",
    "country": "Morocco"
  },
  {
    "city_ascii": "Er Rachidia",
    "lat": "31.9404",
    "lng": "-4.45",
    "country": "Morocco"
  },
  {
    "city_ascii": "Tan Tan",
    "lat": "28.4304",
    "lng": "-11.1",
    "country": "Morocco"
  },
  {
    "city_ascii": "Taza",
    "lat": "34.2204",
    "lng": "-4.02",
    "country": "Morocco"
  },
  {
    "city_ascii": "Larache",
    "lat": "35.2004",
    "lng": "-6.16",
    "country": "Morocco"
  },
  {
    "city_ascii": "Ksar El Kebir",
    "lat": "35.0204",
    "lng": "-5.91",
    "country": "Morocco"
  },
  {
    "city_ascii": "Safi",
    "lat": "32.32",
    "lng": "-9.24",
    "country": "Morocco"
  },
  {
    "city_ascii": "Tiznit",
    "lat": "29.7104",
    "lng": "-9.74",
    "country": "Morocco"
  },
  {
    "city_ascii": "Ouezzane",
    "lat": "34.8103",
    "lng": "-5.57",
    "country": "Morocco"
  },
  {
    "city_ascii": "Monaco",
    "lat": "43.7396",
    "lng": "7.4069",
    "country": "Monaco"
  },
  {
    "city_ascii": "Leova",
    "lat": "46.4823",
    "lng": "28.253",
    "country": "Moldova"
  },
  {
    "city_ascii": "Rezina",
    "lat": "47.7493",
    "lng": "28.9658",
    "country": "Moldova"
  },
  {
    "city_ascii": "Causeni",
    "lat": "46.6367",
    "lng": "29.4111",
    "country": "Moldova"
  },
  {
    "city_ascii": "Riscani",
    "lat": "47.9479",
    "lng": "27.5638",
    "country": "Moldova"
  },
  {
    "city_ascii": "Singerei",
    "lat": "47.6363",
    "lng": "28.143",
    "country": "Moldova"
  },
  {
    "city_ascii": "Falesti",
    "lat": "47.5767",
    "lng": "27.7126",
    "country": "Moldova"
  },
  {
    "city_ascii": "Floresti",
    "lat": "47.8914",
    "lng": "28.2931",
    "country": "Moldova"
  },
  {
    "city_ascii": "Soldanesti",
    "lat": "47.8161",
    "lng": "28.7972",
    "country": "Moldova"
  },
  {
    "city_ascii": "Stefan Voda",
    "lat": "46.5129",
    "lng": "29.6619",
    "country": "Moldova"
  },
  {
    "city_ascii": "Orhei",
    "lat": "47.3849",
    "lng": "28.8245",
    "country": "Moldova"
  },
  {
    "city_ascii": "Comrat",
    "lat": "46.2946",
    "lng": "28.6565",
    "country": "Moldova"
  },
  {
    "city_ascii": "Cimislia",
    "lat": "46.5268",
    "lng": "28.7644",
    "country": "Moldova"
  },
  {
    "city_ascii": "Cantemir",
    "lat": "46.2774",
    "lng": "28.2027",
    "country": "Moldova"
  },
  {
    "city_ascii": "Basarabeasca",
    "lat": "46.3317",
    "lng": "28.9636",
    "country": "Moldova"
  },
  {
    "city_ascii": "Edinet",
    "lat": "48.1721",
    "lng": "27.3034",
    "country": "Moldova"
  },
  {
    "city_ascii": "Ocnita",
    "lat": "48.3827",
    "lng": "27.4381",
    "country": "Moldova"
  },
  {
    "city_ascii": "Drochia",
    "lat": "48.0355",
    "lng": "27.8129",
    "country": "Moldova"
  },
  {
    "city_ascii": "Donduseni",
    "lat": "48.2394",
    "lng": "27.6056",
    "country": "Moldova"
  },
  {
    "city_ascii": "Briceni",
    "lat": "48.3629",
    "lng": "27.0779",
    "country": "Moldova"
  },
  {
    "city_ascii": "Ialoveni",
    "lat": "46.9435",
    "lng": "28.7823",
    "country": "Moldova"
  },
  {
    "city_ascii": "Balti",
    "lat": "47.7591",
    "lng": "27.9053",
    "country": "Moldova"
  },
  {
    "city_ascii": "Criuleni",
    "lat": "47.2131",
    "lng": "29.1593",
    "country": "Moldova"
  },
  {
    "city_ascii": "Bender",
    "lat": "46.8316",
    "lng": "29.4777",
    "country": "Moldova"
  },
  {
    "city_ascii": "Anenii Noi",
    "lat": "46.8784",
    "lng": "29.2348",
    "country": "Moldova"
  },
  {
    "city_ascii": "Cahul",
    "lat": "45.9079",
    "lng": "28.1944",
    "country": "Moldova"
  },
  {
    "city_ascii": "Chisinau",
    "lat": "47.005",
    "lng": "28.8577",
    "country": "Moldova"
  },
  {
    "city_ascii": "Straseni",
    "lat": "47.1422",
    "lng": "28.6077",
    "country": "Moldova"
  },
  {
    "city_ascii": "Tiraspol",
    "lat": "46.8531",
    "lng": "29.64",
    "country": "Moldova"
  },
  {
    "city_ascii": "Telenesti",
    "lat": "47.5011",
    "lng": "28.3654",
    "country": "Moldova"
  },
  {
    "city_ascii": "Taraclia",
    "lat": "45.9027",
    "lng": "28.6682",
    "country": "Moldova"
  },
  {
    "city_ascii": "Dubasari",
    "lat": "47.2631",
    "lng": "29.1608",
    "country": "Moldova"
  },
  {
    "city_ascii": "Cocieri",
    "lat": "47.3087",
    "lng": "29.1101",
    "country": "Moldova"
  },
  {
    "city_ascii": "Calarasi",
    "lat": "47.2556",
    "lng": "28.3099",
    "country": "Moldova"
  },
  {
    "city_ascii": "Glodeni",
    "lat": "47.7751",
    "lng": "27.5189",
    "country": "Moldova"
  },
  {
    "city_ascii": "Hincesti",
    "lat": "46.8305",
    "lng": "28.5906",
    "country": "Moldova"
  },
  {
    "city_ascii": "Nisporeni",
    "lat": "47.0816",
    "lng": "28.1714",
    "country": "Moldova"
  },
  {
    "city_ascii": "Soroca",
    "lat": "48.1566",
    "lng": "28.2849",
    "country": "Moldova"
  },
  {
    "city_ascii": "Ungheni",
    "lat": "47.2108",
    "lng": "27.8005",
    "country": "Moldova"
  },
  {
    "city_ascii": "Berane",
    "lat": "42.8425",
    "lng": "19.8733",
    "country": "Montenegro"
  },
  {
    "city_ascii": "Plav",
    "lat": "42.5969",
    "lng": "19.9456",
    "country": "Montenegro"
  },
  {
    "city_ascii": "Andrijevica",
    "lat": "42.7339",
    "lng": "19.7919",
    "country": "Montenegro"
  },
  {
    "city_ascii": "Petnjica",
    "lat": "42.9089",
    "lng": "19.9644",
    "country": "Montenegro"
  },
  {
    "city_ascii": "Gusinje",
    "lat": "42.5619",
    "lng": "19.8339",
    "country": "Montenegro"
  },
  {
    "city_ascii": "Kolasin",
    "lat": "42.8242",
    "lng": "19.5225",
    "country": "Montenegro"
  },
  {
    "city_ascii": "Podgorica",
    "lat": "42.466",
    "lng": "19.2663",
    "country": "Montenegro"
  },
  {
    "city_ascii": "Bijelo Polje",
    "lat": "43.0292",
    "lng": "19.7456",
    "country": "Montenegro"
  },
  {
    "city_ascii": "Bar",
    "lat": "42.0931",
    "lng": "19.1003",
    "country": "Montenegro"
  },
  {
    "city_ascii": "Budva",
    "lat": "42.2864",
    "lng": "18.84",
    "country": "Montenegro"
  },
  {
    "city_ascii": "Cetinje",
    "lat": "42.3922",
    "lng": "18.9225",
    "country": "Montenegro"
  },
  {
    "city_ascii": "Danilovgrad",
    "lat": "42.5472",
    "lng": "19.1053",
    "country": "Montenegro"
  },
  {
    "city_ascii": "Herceg-Novi",
    "lat": "42.4531",
    "lng": "18.5375",
    "country": "Montenegro"
  },
  {
    "city_ascii": "Kotor",
    "lat": "42.4258",
    "lng": "18.7719",
    "country": "Montenegro"
  },
  {
    "city_ascii": "Mojkovac",
    "lat": "42.9639",
    "lng": "19.5825",
    "country": "Montenegro"
  },
  {
    "city_ascii": "Niksic",
    "lat": "42.775",
    "lng": "18.9583",
    "country": "Montenegro"
  },
  {
    "city_ascii": "Pluzine",
    "lat": "43.1528",
    "lng": "18.8394",
    "country": "Montenegro"
  },
  {
    "city_ascii": "Pljevlja",
    "lat": "43.3522",
    "lng": "19.3542",
    "country": "Montenegro"
  },
  {
    "city_ascii": "Rozaje",
    "lat": "42.8439",
    "lng": "20.1683",
    "country": "Montenegro"
  },
  {
    "city_ascii": "Savnik",
    "lat": "42.9564",
    "lng": "19.0967",
    "country": "Montenegro"
  },
  {
    "city_ascii": "Tivat",
    "lat": "42.4364",
    "lng": "18.6961",
    "country": "Montenegro"
  },
  {
    "city_ascii": "Ulcinj",
    "lat": "41.9283",
    "lng": "19.2064",
    "country": "Montenegro"
  },
  {
    "city_ascii": "Zabljak",
    "lat": "43.1547",
    "lng": "19.1219",
    "country": "Montenegro"
  },
  {
    "city_ascii": "Marigot",
    "lat": "18.0706",
    "lng": "-63.0847",
    "country": "Saint Martin"
  },
  {
    "city_ascii": "Antananarivo",
    "lat": "-18.9166",
    "lng": "47.5166",
    "country": "Madagascar"
  },
  {
    "city_ascii": "Toamasina",
    "lat": "-18.1818",
    "lng": "49.405",
    "country": "Madagascar"
  },
  {
    "city_ascii": "Antalaha",
    "lat": "-14.8833",
    "lng": "50.2833",
    "country": "Madagascar"
  },
  {
    "city_ascii": "Maroantsetra",
    "lat": "-15.4333",
    "lng": "49.7333",
    "country": "Madagascar"
  },
  {
    "city_ascii": "Mandritsara",
    "lat": "-15.8328",
    "lng": "48.8166",
    "country": "Madagascar"
  },
  {
    "city_ascii": "Besalampy",
    "lat": "-16.7495",
    "lng": "44.4833",
    "country": "Madagascar"
  },
  {
    "city_ascii": "Marovoay",
    "lat": "-16.0995",
    "lng": "46.6333",
    "country": "Madagascar"
  },
  {
    "city_ascii": "Andoany",
    "lat": "-13.4",
    "lng": "48.2666",
    "country": "Madagascar"
  },
  {
    "city_ascii": "Mahajanga",
    "lat": "-15.67",
    "lng": "46.345",
    "country": "Madagascar"
  },
  {
    "city_ascii": "Ambanja",
    "lat": "-13.6829",
    "lng": "48.45",
    "country": "Madagascar"
  },
  {
    "city_ascii": "Antsiranana",
    "lat": "-12.2765",
    "lng": "49.3115",
    "country": "Madagascar"
  },
  {
    "city_ascii": "Miandrivazo",
    "lat": "-19.5162",
    "lng": "45.4666",
    "country": "Madagascar"
  },
  {
    "city_ascii": "Mananjary",
    "lat": "-21.2167",
    "lng": "48.3333",
    "country": "Madagascar"
  },
  {
    "city_ascii": "Morombe",
    "lat": "-21.7391",
    "lng": "43.3657",
    "country": "Madagascar"
  },
  {
    "city_ascii": "Toliara",
    "lat": "-23.3568",
    "lng": "43.69",
    "country": "Madagascar"
  },
  {
    "city_ascii": "Manja",
    "lat": "-21.4329",
    "lng": "44.3333",
    "country": "Madagascar"
  },
  {
    "city_ascii": "Fianarantsoa",
    "lat": "-21.4333",
    "lng": "47.0833",
    "country": "Madagascar"
  },
  {
    "city_ascii": "Androka",
    "lat": "-25.0219",
    "lng": "44.0749",
    "country": "Madagascar"
  },
  {
    "city_ascii": "Bekiy",
    "lat": "-24.2162",
    "lng": "45.3166",
    "country": "Madagascar"
  },
  {
    "city_ascii": "Antsirabe",
    "lat": "-19.85",
    "lng": "47.0333",
    "country": "Madagascar"
  },
  {
    "city_ascii": "Antsohihy",
    "lat": "-14.8661",
    "lng": "47.9834",
    "country": "Madagascar"
  },
  {
    "city_ascii": "Maintirano",
    "lat": "-18.0666",
    "lng": "44.0167",
    "country": "Madagascar"
  },
  {
    "city_ascii": "Ambatondrazaka",
    "lat": "-17.8329",
    "lng": "48.4167",
    "country": "Madagascar"
  },
  {
    "city_ascii": "Farafangana",
    "lat": "-22.8166",
    "lng": "47.8332",
    "country": "Madagascar"
  },
  {
    "city_ascii": "Ihosy",
    "lat": "-22.3996",
    "lng": "46.1167",
    "country": "Madagascar"
  },
  {
    "city_ascii": "Morondava",
    "lat": "-20.2833",
    "lng": "44.2833",
    "country": "Madagascar"
  },
  {
    "city_ascii": "Tolanaro",
    "lat": "-25.0268",
    "lng": "46.99",
    "country": "Madagascar"
  },
  {
    "city_ascii": "Sambava",
    "lat": "-14.2662",
    "lng": "50.1666",
    "country": "Madagascar"
  },
  {
    "city_ascii": "Majuro",
    "lat": "7.103",
    "lng": "171.38",
    "country": "Marshall Islands"
  },
  {
    "city_ascii": "Vevcani",
    "lat": "41.2406",
    "lng": "20.5933",
    "country": "Macedonia"
  },
  {
    "city_ascii": "Kocani",
    "lat": "41.9164",
    "lng": "22.4128",
    "country": "Macedonia"
  },
  {
    "city_ascii": "Staro Nagoricane",
    "lat": "42.1981",
    "lng": "21.8286",
    "country": "Macedonia"
  },
  {
    "city_ascii": "Radovis",
    "lat": "41.6383",
    "lng": "22.4647",
    "country": "Macedonia"
  },
  {
    "city_ascii": "Sopiste",
    "lat": "41.9547",
    "lng": "21.4275",
    "country": "Macedonia"
  },
  {
    "city_ascii": "Petrovec",
    "lat": "41.9389",
    "lng": "21.615",
    "country": "Macedonia"
  },
  {
    "city_ascii": "Bosilovo",
    "lat": "41.4406",
    "lng": "22.7278",
    "country": "Macedonia"
  },
  {
    "city_ascii": "Zrnovci",
    "lat": "41.8542",
    "lng": "22.4444",
    "country": "Macedonia"
  },
  {
    "city_ascii": "Gradsko",
    "lat": "41.5775",
    "lng": "21.9428",
    "country": "Macedonia"
  },
  {
    "city_ascii": "Lipkovo",
    "lat": "42.1564",
    "lng": "21.5853",
    "country": "Macedonia"
  },
  {
    "city_ascii": "Lozovo",
    "lat": "41.7839",
    "lng": "21.9056",
    "country": "Macedonia"
  },
  {
    "city_ascii": "Plasnica",
    "lat": "41.4672",
    "lng": "21.1231",
    "country": "Macedonia"
  },
  {
    "city_ascii": "Aracinovo",
    "lat": "42.0264",
    "lng": "21.5619",
    "country": "Macedonia"
  },
  {
    "city_ascii": "Studenicani",
    "lat": "41.9158",
    "lng": "21.5306",
    "country": "Macedonia"
  },
  {
    "city_ascii": "Resen",
    "lat": "41.0893",
    "lng": "21.0109",
    "country": "Macedonia"
  },
  {
    "city_ascii": "Bogovinje",
    "lat": "41.9236",
    "lng": "20.9136",
    "country": "Macedonia"
  },
  {
    "city_ascii": "Vinica",
    "lat": "41.8828",
    "lng": "22.5092",
    "country": "Macedonia"
  },
  {
    "city_ascii": "Belcista",
    "lat": "41.3028",
    "lng": "20.8303",
    "country": "Macedonia"
  },
  {
    "city_ascii": "Mogila",
    "lat": "41.1083",
    "lng": "21.3786",
    "country": "Macedonia"
  },
  {
    "city_ascii": "Veles",
    "lat": "41.7156",
    "lng": "21.7756",
    "country": "Macedonia"
  },
  {
    "city_ascii": "Kavadarci",
    "lat": "41.4331",
    "lng": "22.0119",
    "country": "Macedonia"
  },
  {
    "city_ascii": "Kumanovo",
    "lat": "42.1322",
    "lng": "21.7144",
    "country": "Macedonia"
  },
  {
    "city_ascii": "Ohrid",
    "lat": "41.1172",
    "lng": "20.8019",
    "country": "Macedonia"
  },
  {
    "city_ascii": "Strumica",
    "lat": "41.4375",
    "lng": "22.6433",
    "country": "Macedonia"
  },
  {
    "city_ascii": "Makedonski Brod",
    "lat": "41.5136",
    "lng": "21.2153",
    "country": "Macedonia"
  },
  {
    "city_ascii": "Rostusa",
    "lat": "41.61",
    "lng": "20.6",
    "country": "Macedonia"
  },
  {
    "city_ascii": "Struga",
    "lat": "41.178",
    "lng": "20.6778",
    "country": "Macedonia"
  },
  {
    "city_ascii": "Cucer-Sandevo",
    "lat": "42.102",
    "lng": "21.3846",
    "country": "Macedonia"
  },
  {
    "city_ascii": "Novo Selo",
    "lat": "41.4149",
    "lng": "22.8816",
    "country": "Macedonia"
  },
  {
    "city_ascii": "Zelenikovo",
    "lat": "41.8841",
    "lng": "21.5885",
    "country": "Macedonia"
  },
  {
    "city_ascii": "Star Dojran",
    "lat": "41.1865",
    "lng": "22.7203",
    "country": "Macedonia"
  },
  {
    "city_ascii": "Skopje",
    "lat": "42",
    "lng": "21.4335",
    "country": "Macedonia"
  },
  {
    "city_ascii": "Stip",
    "lat": "41.7423",
    "lng": "22.1979",
    "country": "Macedonia"
  },
  {
    "city_ascii": "Makedonska Kamenica",
    "lat": "42.0208",
    "lng": "22.5876",
    "country": "Macedonia"
  },
  {
    "city_ascii": "Ilinden",
    "lat": "41.9945",
    "lng": "21.58",
    "country": "Macedonia"
  },
  {
    "city_ascii": "Demir Hisar",
    "lat": "41.221",
    "lng": "21.203",
    "country": "Macedonia"
  },
  {
    "city_ascii": "Zelino",
    "lat": "41.9825",
    "lng": "21.0624",
    "country": "Macedonia"
  },
  {
    "city_ascii": "Prilep",
    "lat": "41.3451",
    "lng": "21.555",
    "country": "Macedonia"
  },
  {
    "city_ascii": "Bitola",
    "lat": "41.0391",
    "lng": "21.3395",
    "country": "Macedonia"
  },
  {
    "city_ascii": "Krivogastani",
    "lat": "41.3369",
    "lng": "21.3311",
    "country": "Macedonia"
  },
  {
    "city_ascii": "Krusevo",
    "lat": "41.3694",
    "lng": "21.2483",
    "country": "Macedonia"
  },
  {
    "city_ascii": "Vasilevo",
    "lat": "41.4741",
    "lng": "22.643",
    "country": "Macedonia"
  },
  {
    "city_ascii": "Gostivar",
    "lat": "41.796",
    "lng": "20.9082",
    "country": "Macedonia"
  },
  {
    "city_ascii": "Vrapciste",
    "lat": "41.8344",
    "lng": "20.8856",
    "country": "Macedonia"
  },
  {
    "city_ascii": "Novaci",
    "lat": "41.042",
    "lng": "21.4587",
    "country": "Macedonia"
  },
  {
    "city_ascii": "Caska",
    "lat": "41.6487",
    "lng": "21.6922",
    "country": "Macedonia"
  },
  {
    "city_ascii": "Kratovo",
    "lat": "42.0784",
    "lng": "22.1807",
    "country": "Macedonia"
  },
  {
    "city_ascii": "Probistip",
    "lat": "42.0019",
    "lng": "22.1728",
    "country": "Macedonia"
  },
  {
    "city_ascii": "Debar",
    "lat": "41.5244",
    "lng": "20.5242",
    "country": "Macedonia"
  },
  {
    "city_ascii": "Centar Zupa",
    "lat": "41.4788",
    "lng": "20.5586",
    "country": "Macedonia"
  },
  {
    "city_ascii": "Rosoman",
    "lat": "41.5167",
    "lng": "21.9458",
    "country": "Macedonia"
  },
  {
    "city_ascii": "Jegunovce",
    "lat": "42.0724",
    "lng": "21.1237",
    "country": "Macedonia"
  },
  {
    "city_ascii": "Demir Kapija",
    "lat": "41.4061",
    "lng": "22.2463",
    "country": "Macedonia"
  },
  {
    "city_ascii": "Negotino",
    "lat": "41.4846",
    "lng": "22.0906",
    "country": "Macedonia"
  },
  {
    "city_ascii": "Konce",
    "lat": "41.4951",
    "lng": "22.3836",
    "country": "Macedonia"
  },
  {
    "city_ascii": "Dolneni",
    "lat": "41.4258",
    "lng": "21.454",
    "country": "Macedonia"
  },
  {
    "city_ascii": "Sveti Nikole",
    "lat": "41.8667",
    "lng": "21.9411",
    "country": "Macedonia"
  },
  {
    "city_ascii": "Valandovo",
    "lat": "41.3174",
    "lng": "22.56",
    "country": "Macedonia"
  },
  {
    "city_ascii": "Kicevo",
    "lat": "41.5127",
    "lng": "20.9589",
    "country": "Macedonia"
  },
  {
    "city_ascii": "Delcevo",
    "lat": "41.9654",
    "lng": "22.7763",
    "country": "Macedonia"
  },
  {
    "city_ascii": "Tetovo",
    "lat": "42.0092",
    "lng": "20.9701",
    "country": "Macedonia"
  },
  {
    "city_ascii": "Cesinovo",
    "lat": "41.8715",
    "lng": "22.2896",
    "country": "Macedonia"
  },
  {
    "city_ascii": "Karbinci",
    "lat": "41.8176",
    "lng": "22.2353",
    "country": "Macedonia"
  },
  {
    "city_ascii": "Tearce",
    "lat": "42.0767",
    "lng": "21.0531",
    "country": "Macedonia"
  },
  {
    "city_ascii": "Kriva Palanka",
    "lat": "42.2009",
    "lng": "22.3324",
    "country": "Macedonia"
  },
  {
    "city_ascii": "Rankovce",
    "lat": "42.1686",
    "lng": "22.1166",
    "country": "Macedonia"
  },
  {
    "city_ascii": "Pehcevo",
    "lat": "41.7623",
    "lng": "22.8892",
    "country": "Macedonia"
  },
  {
    "city_ascii": "Gevgelija",
    "lat": "41.1417",
    "lng": "22.5014",
    "country": "Macedonia"
  },
  {
    "city_ascii": "Bogdanci",
    "lat": "41.2031",
    "lng": "22.5756",
    "country": "Macedonia"
  },
  {
    "city_ascii": "Berovo",
    "lat": "41.7031",
    "lng": "22.8578",
    "country": "Macedonia"
  },
  {
    "city_ascii": "Brvenica",
    "lat": "41.9672",
    "lng": "20.9808",
    "country": "Macedonia"
  },
  {
    "city_ascii": "Aguelhok",
    "lat": "19.4549",
    "lng": "0.8564",
    "country": "Mali"
  },
  {
    "city_ascii": "Bamako",
    "lat": "12.65",
    "lng": "-8",
    "country": "Mali"
  },
  {
    "city_ascii": "Kidal",
    "lat": "18.4411",
    "lng": "1.4078",
    "country": "Mali"
  },
  {
    "city_ascii": "Bourem",
    "lat": "16.9004",
    "lng": "-0.35",
    "country": "Mali"
  },
  {
    "city_ascii": "Mopti",
    "lat": "14.49",
    "lng": "-4.18",
    "country": "Mali"
  },
  {
    "city_ascii": "Gao",
    "lat": "16.2666",
    "lng": "-0.05",
    "country": "Mali"
  },
  {
    "city_ascii": "Satadougou",
    "lat": "12.617",
    "lng": "-11.4066",
    "country": "Mali"
  },
  {
    "city_ascii": "Koulikoro",
    "lat": "12.8833",
    "lng": "-7.55",
    "country": "Mali"
  },
  {
    "city_ascii": "Sikasso",
    "lat": "11.3204",
    "lng": "-5.68",
    "country": "Mali"
  },
  {
    "city_ascii": "Araouane",
    "lat": "18.9",
    "lng": "-3.53",
    "country": "Mali"
  },
  {
    "city_ascii": "Segou",
    "lat": "13.44",
    "lng": "-6.26",
    "country": "Mali"
  },
  {
    "city_ascii": "Timbuktu",
    "lat": "16.7666",
    "lng": "-3.0166",
    "country": "Mali"
  },
  {
    "city_ascii": "Markala",
    "lat": "13.6704",
    "lng": "-6.07",
    "country": "Mali"
  },
  {
    "city_ascii": "Taoudenni",
    "lat": "22.6666",
    "lng": "-3.9834",
    "country": "Mali"
  },
  {
    "city_ascii": "Kayes",
    "lat": "14.45",
    "lng": "-11.44",
    "country": "Mali"
  },
  {
    "city_ascii": "Sokolo",
    "lat": "14.7337",
    "lng": "-6.1333",
    "country": "Mali"
  },
  {
    "city_ascii": "Kita",
    "lat": "13.0504",
    "lng": "-9.4833",
    "country": "Mali"
  },
  {
    "city_ascii": "Nara",
    "lat": "15.18",
    "lng": "-7.28",
    "country": "Mali"
  },
  {
    "city_ascii": "Kati",
    "lat": "12.7504",
    "lng": "-8.08",
    "country": "Mali"
  },
  {
    "city_ascii": "Kangaba",
    "lat": "11.9404",
    "lng": "-8.44",
    "country": "Mali"
  },
  {
    "city_ascii": "San",
    "lat": "13.3004",
    "lng": "-4.9",
    "country": "Mali"
  },
  {
    "city_ascii": "Bougouni",
    "lat": "11.4204",
    "lng": "-7.49",
    "country": "Mali"
  },
  {
    "city_ascii": "Koutiala",
    "lat": "12.3904",
    "lng": "-5.47",
    "country": "Mali"
  },
  {
    "city_ascii": "Djenne",
    "lat": "13.9",
    "lng": "-4.55",
    "country": "Mali"
  },
  {
    "city_ascii": "Yelimane",
    "lat": "15.1337",
    "lng": "-10.5666",
    "country": "Mali"
  },
  {
    "city_ascii": "Bafoulabe",
    "lat": "13.8004",
    "lng": "-10.82",
    "country": "Mali"
  },
  {
    "city_ascii": "Nioro du Sahel",
    "lat": "15.2304",
    "lng": "-9.59",
    "country": "Mali"
  },
  {
    "city_ascii": "Goundam",
    "lat": "16.417",
    "lng": "-3.6666",
    "country": "Mali"
  },
  {
    "city_ascii": "Menaka",
    "lat": "15.9167",
    "lng": "2.4",
    "country": "Mali"
  },
  {
    "city_ascii": "Tessalit",
    "lat": "20.2014",
    "lng": "1.0888",
    "country": "Mali"
  },
  {
    "city_ascii": "Banamba",
    "lat": "13.5504",
    "lng": "-7.45",
    "country": "Mali"
  },
  {
    "city_ascii": "Rangoon",
    "lat": "16.7834",
    "lng": "96.1667",
    "country": "Burma"
  },
  {
    "city_ascii": "Allanmyo",
    "lat": "19.3783",
    "lng": "95.2279",
    "country": "Burma"
  },
  {
    "city_ascii": "Mudon",
    "lat": "16.2618",
    "lng": "97.7215",
    "country": "Burma"
  },
  {
    "city_ascii": "Mawlamyine",
    "lat": "16.5004",
    "lng": "97.67",
    "country": "Burma"
  },
  {
    "city_ascii": "Phyarpon",
    "lat": "16.2933",
    "lng": "95.6829",
    "country": "Burma"
  },
  {
    "city_ascii": "Labutta",
    "lat": "16.1619",
    "lng": "94.7014",
    "country": "Burma"
  },
  {
    "city_ascii": "Dawei",
    "lat": "14.098",
    "lng": "98.195",
    "country": "Burma"
  },
  {
    "city_ascii": "Myeik",
    "lat": "12.4541",
    "lng": "98.6115",
    "country": "Burma"
  },
  {
    "city_ascii": "Ye",
    "lat": "15.2533",
    "lng": "97.8679",
    "country": "Burma"
  },
  {
    "city_ascii": "Namtu",
    "lat": "23.0837",
    "lng": "97.4",
    "country": "Burma"
  },
  {
    "city_ascii": "Hinthada",
    "lat": "17.6483",
    "lng": "95.4679",
    "country": "Burma"
  },
  {
    "city_ascii": "Thongwa",
    "lat": "16.7547",
    "lng": "96.5193",
    "country": "Burma"
  },
  {
    "city_ascii": "Bago",
    "lat": "17.32",
    "lng": "96.515",
    "country": "Burma"
  },
  {
    "city_ascii": "Pathein",
    "lat": "16.7704",
    "lng": "94.75",
    "country": "Burma"
  },
  {
    "city_ascii": "Yandoon",
    "lat": "17.0433",
    "lng": "95.6429",
    "country": "Burma"
  },
  {
    "city_ascii": "Wakema",
    "lat": "16.6133",
    "lng": "95.1829",
    "country": "Burma"
  },
  {
    "city_ascii": "Pyay",
    "lat": "18.8165",
    "lng": "95.2114",
    "country": "Burma"
  },
  {
    "city_ascii": "Chauk",
    "lat": "20.9085",
    "lng": "94.823",
    "country": "Burma"
  },
  {
    "city_ascii": "Myitkyina",
    "lat": "25.3596",
    "lng": "97.3928",
    "country": "Burma"
  },
  {
    "city_ascii": "Monywa",
    "lat": "22.105",
    "lng": "95.15",
    "country": "Burma"
  },
  {
    "city_ascii": "Naypyidaw",
    "lat": "19.7666",
    "lng": "96.1186",
    "country": "Burma"
  },
  {
    "city_ascii": "Loikaw",
    "lat": "19.665",
    "lng": "97.206",
    "country": "Burma"
  },
  {
    "city_ascii": "Yaynangyoung",
    "lat": "20.4615",
    "lng": "94.881",
    "country": "Burma"
  },
  {
    "city_ascii": "Kyaukphyu",
    "lat": "19.429",
    "lng": "93.5494",
    "country": "Burma"
  },
  {
    "city_ascii": "Magway",
    "lat": "20.1445",
    "lng": "94.9196",
    "country": "Burma"
  },
  {
    "city_ascii": "Shwebo",
    "lat": "22.5783",
    "lng": "95.6929",
    "country": "Burma"
  },
  {
    "city_ascii": "Sagaing",
    "lat": "21.88",
    "lng": "95.962",
    "country": "Burma"
  },
  {
    "city_ascii": "Myingyan",
    "lat": "21.4618",
    "lng": "95.3914",
    "country": "Burma"
  },
  {
    "city_ascii": "Pakokku",
    "lat": "21.332",
    "lng": "95.0866",
    "country": "Burma"
  },
  {
    "city_ascii": "Mandalay",
    "lat": "21.97",
    "lng": "96.085",
    "country": "Burma"
  },
  {
    "city_ascii": "Taunggyi",
    "lat": "20.782",
    "lng": "97.038",
    "country": "Burma"
  },
  {
    "city_ascii": "Pyu",
    "lat": "18.4779",
    "lng": "96.4379",
    "country": "Burma"
  },
  {
    "city_ascii": "Taungoo",
    "lat": "18.9483",
    "lng": "96.4179",
    "country": "Burma"
  },
  {
    "city_ascii": "Letpadan",
    "lat": "17.7819",
    "lng": "95.7415",
    "country": "Burma"
  },
  {
    "city_ascii": "Sittwe",
    "lat": "20.14",
    "lng": "92.88",
    "country": "Burma"
  },
  {
    "city_ascii": "Pa-an",
    "lat": "16.85",
    "lng": "97.6167",
    "country": "Burma"
  },
  {
    "city_ascii": "Hakha",
    "lat": "22.65",
    "lng": "93.6167",
    "country": "Burma"
  },
  {
    "city_ascii": "Olgiy",
    "lat": "48.9337",
    "lng": "89.95",
    "country": "Mongolia"
  },
  {
    "city_ascii": "Mandalgovi",
    "lat": "45.75",
    "lng": "106.266",
    "country": "Mongolia"
  },
  {
    "city_ascii": "Ulaanbaatar",
    "lat": "47.9167",
    "lng": "106.9166",
    "country": "Mongolia"
  },
  {
    "city_ascii": "Moron",
    "lat": "49.6453",
    "lng": "100.1544",
    "country": "Mongolia"
  },
  {
    "city_ascii": "Darhan",
    "lat": "49.6167",
    "lng": "106.35",
    "country": "Mongolia"
  },
  {
    "city_ascii": "Erdenet",
    "lat": "49.0533",
    "lng": "104.1183",
    "country": "Mongolia"
  },
  {
    "city_ascii": "Uliastay",
    "lat": "47.75",
    "lng": "96.8167",
    "country": "Mongolia"
  },
  {
    "city_ascii": "Choyr",
    "lat": "46.3611",
    "lng": "108.3611",
    "country": "Mongolia"
  },
  {
    "city_ascii": "Altay",
    "lat": "46.3722",
    "lng": "96.2583",
    "country": "Mongolia"
  },
  {
    "city_ascii": "Buyant-Uhaa",
    "lat": "44.8666",
    "lng": "110.15",
    "country": "Mongolia"
  },
  {
    "city_ascii": "Choybalsan",
    "lat": "48.0666",
    "lng": "114.506",
    "country": "Mongolia"
  },
  {
    "city_ascii": "Ulaangom",
    "lat": "49.9833",
    "lng": "92.0666",
    "country": "Mongolia"
  },
  {
    "city_ascii": "Bulgan",
    "lat": "48.8106",
    "lng": "103.5317",
    "country": "Mongolia"
  },
  {
    "city_ascii": "Arvayheer",
    "lat": "46.25",
    "lng": "102.7666",
    "country": "Mongolia"
  },
  {
    "city_ascii": "Tsetserleg",
    "lat": "47.4769",
    "lng": "101.4502",
    "country": "Mongolia"
  },
  {
    "city_ascii": "Bayankhongor",
    "lat": "46.3",
    "lng": "100.9833",
    "country": "Mongolia"
  },
  {
    "city_ascii": "Darhan",
    "lat": "49.4867",
    "lng": "105.9228",
    "country": "Mongolia"
  },
  {
    "city_ascii": "Dzuunharaa",
    "lat": "48.8666",
    "lng": "106.4666",
    "country": "Mongolia"
  },
  {
    "city_ascii": "Dzuunmod",
    "lat": "47.711",
    "lng": "106.947",
    "country": "Mongolia"
  },
  {
    "city_ascii": "Ondorhaan",
    "lat": "47.3167",
    "lng": "110.65",
    "country": "Mongolia"
  },
  {
    "city_ascii": "Dalandzadgad",
    "lat": "43.5836",
    "lng": "104.4403",
    "country": "Mongolia"
  },
  {
    "city_ascii": "Ulaan-Uul",
    "lat": "44.3337",
    "lng": "111.2333",
    "country": "Mongolia"
  },
  {
    "city_ascii": "Hodrogo",
    "lat": "48.9664",
    "lng": "96.7833",
    "country": "Mongolia"
  },
  {
    "city_ascii": "Baruun Urt",
    "lat": "46.7",
    "lng": "113.2833",
    "country": "Mongolia"
  },
  {
    "city_ascii": "Suchboatar",
    "lat": "50.25",
    "lng": "106.2",
    "country": "Mongolia"
  },
  {
    "city_ascii": "Dund-Us",
    "lat": "48.0166",
    "lng": "91.6333",
    "country": "Mongolia"
  },
  {
    "city_ascii": "Macau",
    "lat": "22.203",
    "lng": "113.545",
    "country": "Macau"
  },
  {
    "city_ascii": "Fort-de-France",
    "lat": "14.6104",
    "lng": "-61.08",
    "country": "Martinique"
  },
  {
    "city_ascii": "Bogue",
    "lat": "16.5904",
    "lng": "-14.27",
    "country": "Mauritania"
  },
  {
    "city_ascii": "Chegga",
    "lat": "25.3804",
    "lng": "-5.78",
    "country": "Mauritania"
  },
  {
    "city_ascii": "Boutilimit",
    "lat": "17.5504",
    "lng": "-14.7",
    "country": "Mauritania"
  },
  {
    "city_ascii": "Timbedra",
    "lat": "16.2504",
    "lng": "-8.1666",
    "country": "Mauritania"
  },
  {
    "city_ascii": "Bir Mogrein",
    "lat": "25.2333",
    "lng": "-11.5833",
    "country": "Mauritania"
  },
  {
    "city_ascii": "Fderik",
    "lat": "22.679",
    "lng": "-12.707",
    "country": "Mauritania"
  },
  {
    "city_ascii": "Selibaby",
    "lat": "15.167",
    "lng": "-12.1833",
    "country": "Mauritania"
  },
  {
    "city_ascii": "Aleg",
    "lat": "17.058",
    "lng": "-13.909",
    "country": "Mauritania"
  },
  {
    "city_ascii": "Akjoujt",
    "lat": "19.747",
    "lng": "-14.391",
    "country": "Mauritania"
  },
  {
    "city_ascii": "Kiffa",
    "lat": "16.62",
    "lng": "-11.4",
    "country": "Mauritania"
  },
  {
    "city_ascii": "Nema",
    "lat": "16.6171",
    "lng": "-7.25",
    "country": "Mauritania"
  },
  {
    "city_ascii": "Nouadhibou",
    "lat": "20.9",
    "lng": "-17.056",
    "country": "Mauritania"
  },
  {
    "city_ascii": "Rosso",
    "lat": "16.524",
    "lng": "-15.8127",
    "country": "Mauritania"
  },
  {
    "city_ascii": "Tidjikdja",
    "lat": "18.55",
    "lng": "-11.4166",
    "country": "Mauritania"
  },
  {
    "city_ascii": "Atar",
    "lat": "20.5166",
    "lng": "-13.05",
    "country": "Mauritania"
  },
  {
    "city_ascii": "Kaedi",
    "lat": "16.1503",
    "lng": "-13.5037",
    "country": "Mauritania"
  },
  {
    "city_ascii": "Zouirat",
    "lat": "22.7304",
    "lng": "-12.4833",
    "country": "Mauritania"
  },
  {
    "city_ascii": "Arafat",
    "lat": "18.0583",
    "lng": "-15.9621",
    "country": "Mauritania"
  },
  {
    "city_ascii": "Dar Naim",
    "lat": "18.0973",
    "lng": "-15.9327",
    "country": "Mauritania"
  },
  {
    "city_ascii": "Tevragh Zeina",
    "lat": "18.0989",
    "lng": "-15.9885",
    "country": "Mauritania"
  },
  {
    "city_ascii": "Nouakchott",
    "lat": "18.0864",
    "lng": "-15.9753",
    "country": "Mauritania"
  },
  {
    "city_ascii": "Ayoun el Atrous",
    "lat": "16.6666",
    "lng": "-9.6167",
    "country": "Mauritania"
  },
  {
    "city_ascii": "Plymouth",
    "lat": "16.7",
    "lng": "-62.2167",
    "country": "Montserrat"
  },
  {
    "city_ascii": "Birzebbuga",
    "lat": "35.8258",
    "lng": "14.5269",
    "country": "Malta"
  },
  {
    "city_ascii": "Marsaskala",
    "lat": "35.8669",
    "lng": "14.5619",
    "country": "Malta"
  },
  {
    "city_ascii": "Marsaxlokk",
    "lat": "35.8419",
    "lng": "14.5431",
    "country": "Malta"
  },
  {
    "city_ascii": "Kirkop",
    "lat": "35.8422",
    "lng": "14.4853",
    "country": "Malta"
  },
  {
    "city_ascii": "Pieta",
    "lat": "35.8947",
    "lng": "14.495",
    "country": "Malta"
  },
  {
    "city_ascii": "Zejtun",
    "lat": "35.8558",
    "lng": "14.5331",
    "country": "Malta"
  },
  {
    "city_ascii": "Attard",
    "lat": "35.8897",
    "lng": "14.4425",
    "country": "Malta"
  },
  {
    "city_ascii": "Pembroke",
    "lat": "35.9306",
    "lng": "14.4764",
    "country": "Malta"
  },
  {
    "city_ascii": "Zebbug",
    "lat": "35.8719",
    "lng": "14.4411",
    "country": "Malta"
  },
  {
    "city_ascii": "Ta' Xbiex",
    "lat": "35.8992",
    "lng": "14.4944",
    "country": "Malta"
  },
  {
    "city_ascii": "Sliema",
    "lat": "35.9125",
    "lng": "14.5019",
    "country": "Malta"
  },
  {
    "city_ascii": "San Lawrenz",
    "lat": "36.0556",
    "lng": "14.2036",
    "country": "Malta"
  },
  {
    "city_ascii": "Imqabba",
    "lat": "35.8461",
    "lng": "14.4672",
    "country": "Malta"
  },
  {
    "city_ascii": "Imdina",
    "lat": "35.8869",
    "lng": "14.4025",
    "country": "Malta"
  },
  {
    "city_ascii": "Qala",
    "lat": "36.0361",
    "lng": "14.3094",
    "country": "Malta"
  },
  {
    "city_ascii": "Imtarfa",
    "lat": "35.8933",
    "lng": "14.3989",
    "country": "Malta"
  },
  {
    "city_ascii": "Zurrieq",
    "lat": "35.8311",
    "lng": "14.4742",
    "country": "Malta"
  },
  {
    "city_ascii": "Gudja",
    "lat": "35.8492",
    "lng": "14.5031",
    "country": "Malta"
  },
  {
    "city_ascii": "Sannat",
    "lat": "36.0244",
    "lng": "14.2428",
    "country": "Malta"
  },
  {
    "city_ascii": "Valletta",
    "lat": "35.8997",
    "lng": "14.5147",
    "country": "Malta"
  },
  {
    "city_ascii": "Zabbar",
    "lat": "35.8761",
    "lng": "14.535",
    "country": "Malta"
  },
  {
    "city_ascii": "Luqa",
    "lat": "35.8589",
    "lng": "14.4886",
    "country": "Malta"
  },
  {
    "city_ascii": "Qormi",
    "lat": "35.8783",
    "lng": "14.4719",
    "country": "Malta"
  },
  {
    "city_ascii": "Imgarr",
    "lat": "35.9206",
    "lng": "14.3664",
    "country": "Malta"
  },
  {
    "city_ascii": "Saint Paul's Bay",
    "lat": "35.9483",
    "lng": "14.4006",
    "country": "Malta"
  },
  {
    "city_ascii": "Qrendi",
    "lat": "35.8347",
    "lng": "14.4583",
    "country": "Malta"
  },
  {
    "city_ascii": "Munxar",
    "lat": "36.03",
    "lng": "14.2333",
    "country": "Malta"
  },
  {
    "city_ascii": "Hamrun",
    "lat": "35.8847",
    "lng": "14.4844",
    "country": "Malta"
  },
  {
    "city_ascii": "Naxxar",
    "lat": "35.9136",
    "lng": "14.4436",
    "country": "Malta"
  },
  {
    "city_ascii": "Ghaxaq",
    "lat": "35.8489",
    "lng": "14.5167",
    "country": "Malta"
  },
  {
    "city_ascii": "Ghasri",
    "lat": "36.0578",
    "lng": "14.2264",
    "country": "Malta"
  },
  {
    "city_ascii": "Victoria",
    "lat": "36.0444",
    "lng": "14.2397",
    "country": "Malta"
  },
  {
    "city_ascii": "Iklin",
    "lat": "35.9092",
    "lng": "14.4522",
    "country": "Malta"
  },
  {
    "city_ascii": "Gharghur",
    "lat": "35.9242",
    "lng": "14.4519",
    "country": "Malta"
  },
  {
    "city_ascii": "Dingli",
    "lat": "35.8614",
    "lng": "14.3822",
    "country": "Malta"
  },
  {
    "city_ascii": "Siggiewi",
    "lat": "35.8556",
    "lng": "14.4364",
    "country": "Malta"
  },
  {
    "city_ascii": "Xewkija",
    "lat": "36.0328",
    "lng": "14.2581",
    "country": "Malta"
  },
  {
    "city_ascii": "Lija",
    "lat": "35.9006",
    "lng": "14.4464",
    "country": "Malta"
  },
  {
    "city_ascii": "Safi",
    "lat": "35.8331",
    "lng": "14.4847",
    "country": "Malta"
  },
  {
    "city_ascii": "Senglea",
    "lat": "35.8875",
    "lng": "14.5169",
    "country": "Malta"
  },
  {
    "city_ascii": "Xaghra",
    "lat": "36.05",
    "lng": "14.2644",
    "country": "Malta"
  },